airport_id,airport_name,city_name,latitude,longitude
01A,Afognak Lake Airport,"Afognak Lake, AK",58.10944444,-152.9066667
03A,Bear Creek Mining Strip,"Granite Mountain, AK",65.54805556,-161.07166669999998
04A,Lik Mining Camp,"Lik, AK",68.08333333,-163.16666669999998
05A,Little Squaw Airport,"Little Squaw, AK",67.57,-148.1838889
06A,Kizhuyak Bay,"Kizhuyak, AK",57.74527778,-152.8827778
07A,Klawock Seaplane Base,"Klawock, AK",55.55472222,-133.1016667
08A,Elizabeth Island Airport,"Elizabeth Island, AK",59.15694444,-151.8291667
09A,Augustin Island,"Homer, AK",59.36277778,-153.4305556
1B1,Columbia County,"Hudson, NY",42.29138889,-73.71027778
1G4,Grand Canyon West,"Peach Springs, AZ",35.98611111,-113.81694440000001
1N7,Blairstown Airport,"Blairstown, NJ",40.97111111,-74.9975
8F3,Crosbyton Municipal,"Crosbyton, TX",33.62388889,-101.24083329999999
A01,Blair Lake,"Fairbanks/Ft. Wainwright, AK",64.36361111,-147.3638889
A02,Deadmans Bay Airport,"Deadmans Bay, AK",57.06666667,-153.93777780000002
A03,Hallo Bay Airport,"Hallo Bay, AK",58.4575,-154.02333330000002
A04,Red Lake Airport,"Red Lake, AK",57.27722222,-154.34222219999998
A05,Shell Lake Airport,"Shell Lake, AK",61.96388889,-151.55583330000002
A06,Navigator Airstrip,"Kougarok, AK",65.65555556,-165.35638889999998
A07,Roland Norton Memorial,"Selawik, AK",66.76611111,-160.15277780000002
A08,Pillar Bay Airport,"Pillar Bay, AK",56.59805556,-134.24277780000003
A09,Johnstone Point Airport,"Johnstone Point, AK",60.48166667,-146.5841667
KTH,Tikchik Lodge Airport,"Tikchik Lodge, AK",59.95555556,-158.48055559999997
A11,Bell Creek Airport,"Bell Creek, AK",60.78388889,-159.5402778
A12,Cinnabar Airport,"Cinnabar, AK",60.78527778,-158.86444440000002
A13,Mountaintop Mine Airport,"Mountaintop Mine, AK",61.39027778,-157.9955556
A14,Whitebear Airport,"Whitebear, AK",61.18888889,-159.8583333
A15,Puviaq Airport,"Puviaq, AK",70.71555556,-154.40694440000001
A16,Arley Lake Airport,"Arley Lake, AK",70.74694444,-155.3608333
A17,Port Vita Airport,"Port Vita, AK",58.06555556,-153.0725
A18,Kantishna Airport,"Kantishna, AK",63.54111111,-150.995
A20,Alpine Airstrip,"Alpine, AK",70.34416667,-150.94472219999997
A21,Serpentine Airport,"Serpentine, AK",65.85138889,-164.7027778
A22,Driftwood Bay Airport,"Driftwood Bay, AK",53.97277778,-166.8569444
A23,Bradley Lake Airport,"Bradley Lake, AK",59.77611111,-151.9636111
A24,Chilkat Lake Airport,"Chilkat Lake, AK",59.33166667,-135.8966667
A25,Nugget Creek Airport,"Nugget Creek, AK",59.28833333,-136.1738889
A26,Ivotuk Airstrip,"Ivotuk, AK",68.48333333,-155.7333333
A27,Pogo Mines Airport,"Pogo Mines, AK",64.44,-144.9363889
A28,Ayakulik River Airport,"Ayakulik River, AK",57.25388889,-154.4222222
A29,Kiluda Bay Airport,"Kiluda Bay, AK",57.32305556,-153.14944440000002
A30,Terror Lake Airport,"Terror Lake, AK",57.96388889,-153.05833330000002
A31,Selief Bay Airport,"Selief Bay, AK",58.98277778,-153.18333330000002
A34,Laura Lake Airport,"Laura Lake, AK",58.36194444,-152.31222219999998
A36,Deep Bay Airport,"Deep Bay, AK",55.56027778,-131.65555559999999
A37,Kako Airport,"Kako, AK",61.89888889,-161.43972219999998
A38,Molly Creek Airport,"Molly Creek, AK",64.09722222,-143.2666667
A39,Ptarmigan Lake Airport,"Ptarmigan Lake, AK",61.86611111,-141.15972219999998
A40,Cape Simpson Airport,"Cape Simpson, AK",71.05694444,-154.7283333
A41,Kogru River Airport,"Kogru River, AK",70.57472222,-152.2588889
A42,Teshepkuk Lake Airport,"Teshepkuk Lake, AK",70.35833333,-153.19666669999998
A43,Trident Basin Seaplane Base,"Kodiak Island, AK",57.78083333,-152.3911111
A45,Lake Florence Airport,"Lake Florence, AK",57.81666667,-134.58333330000002
A46,Lake Hasselborg Airport,"Lake Hasselborg, AK",57.7,-134.2666667
A47,Distin Lake Airport,"Distin Lake, AK",57.61666667,-134.3666667
A48,Port Hobron Airport,"Port Hobron, AK",57.15,-153.15
A49,Mooseville Airstrip Airport,"Mooseville Airstrip, AK",70.28444444,-152.21194440000002
A50,Big Bay Airport,"Big Bay, AK",58.5625,-152.5961111
A51,Wien Lake Airport,"Wien Lake, AK",64.35277778,-151.275
A52,Silver Salmon Creek Airport,"Silver Salmon Creek, AK",59.96388889,-152.68222219999998
A53,Blear Lake Airport,"Blear Lake, AK",64.33333333,-147.5
A54,Cannery Bay Airport,"Cannery Bay, AK",53.68333333,-166.75
A56,Johnsons Landing,"Bear Lake, AK",56.03666667,-160.2661111
A57,International Seafoods Airport,"International Seafoods, AK",58.26666667,-157.5333333
A58,Cosna River Airport,"Cosna River, AK",64.5,-151.66666669999998
A59,Ivatuk Airport,"Ivatuk, AK",68.48777778,-155.7575
A61,Cape Sarichef Airport,"Cape Sarichef, AK",54.5825,-164.9144444
A62,Taylor Mountain,"Taylor Mountain Mine, AK",60.86777778,-157.3919444
A63,Coal Creek,"Yukon Charley Rivvers, AK",65.31166667,-143.13416669999998
A65,Karluk Portage Airport,"Karluk Portage, AK",57.53833333,-154.1644444
A66,Hope Airport,"Hope, AK",60.90722222,-149.62277780000002
A67,Viekoda Bay Airport,"Viekoda Bay, AK",57.84944444,-153.11527780000003
A69,Cathedral Strip,"Cold Bay, AK",55.74,-162.12527780000002
A70,Village Islands Airport,"Village Islands, AK",57.77416667,-153.5447222
A71,Bear Cove Farm,"Homer, AK",59.73833333,-151.03
A72,Chinitna Bay Airport,"Chinitna Bay, AK",59.83333333,-152.5847222
A73,McKinley National Park,"McKinley Park, AK",63.7325,-148.91055559999998
A74,Dog Fish Bay,"Nanwalek, AK",59.24111111,-151.87722219999998
A75,Malina Bay Airport,"Malina Bay, AK",58.17194444,-152.8941667
A76,Red Fox Bay Airport,"Red Fox Bay, AK",58.46444444,-152.59305559999999
A77,Shearwater Airport,"Shearwater, AK",57.34333333,-152.8972222
A78,Lake,"Cape Simpson, AK",71.03,-154.4436111
A79,Cape Simpson No. 1,"Cape Simpson, AK",71.50166667,-154.0338889
A80,Cape Simpson No. 7,"Cape Simpson, AK",70.57388889,-155.3213889
A81,Cape Simpson #1,"Aglaq, AK",70.66277778,-154.8366667
A82,Nikiski Private Airstrip,"Nikiski, AK",60.69027778,-151.2888889
A83,Petrof Point Airport,"Petrof Point, AK",59.37638889,-150.765
A84,Denali West Lodge Private,"Denali, AK",63.75555556,-147.93
A85,Big River Airport,"Big River, AK",61.85944444,-154.2766667
A87,Carry Inlet Airport,"Carry Inlet, AK",58.58305556,-152.4458333
A89,Montague Island Airport,"Montague Island, AK",59.925,-147.5166667
A90,Shannon Pond Airport,"Shannon Pond, AK",59.03916667,-158.4638889
A91,Omalik Lagoon Airport,"Omalik Lagoon, AK",69.15555556,-163.49722219999998
A92,Omolik Lagoon Airport,"Omolik Lagoon, AK",69.14805556,-163.5102778
A93,Bradley Lake Project Airport,"Bradley Lake Project, AK",59.79166667,-151.2666667
A94,Ice Strip,"Barrow, AK",70.57416667,-155.31805559999998
A95,Ice Strip,"Barrow, AK",70.31194444,-153.2491667
A96,Ice Strip,"Barrow, AK",70.98083333,-157.095
A97,Akulik Air Strip,"Akulik, AK",68.98555556,-163.47972219999997
A98,Deadfall Air Strip,"Deadfall, AK",69.17083333,-163.2563889
A99,Eagle Creek Airport,"Eagle Creek, AK",68.67666667,-162.64694440000002
AA1,Ice Kong,"Bethel, AK",59.95277778,-162.61694440000002
AA4,Glacier Split,"Kachemak Bay, AK",59.63333333,-151.20833330000002
AA5,Selby Lake Airport,"Selby Lake, AK",66.95583333,-155.615
AAF,Apalachicola Regional Cleve Randolph Field,"Apalachicola, FL",29.7275,-85.0275
ABE,Lehigh Valley International,"Allentown/Bethlehem/Easton, PA",40.65222222,-75.44055556
ABI,Abilene Regional,"Abilene, TX",32.41138889,-99.68194444
ABL,Ambler River,"Ambler, AK",67.0875,-157.8458333
ABQ,Albuquerque International Sunport,"Albuquerque, NM",35.03888889,-106.60833329999998
ABR,Aberdeen Regional,"Aberdeen, SD",45.44666667,-98.4225
ABY,Southwest Georgia Regional,"Albany, GA",31.53555556,-84.19444444
ACB,Antrim County,"Bellaire, MI",44.98861111,-85.19833333
ACK,Nantucket Memorial,"Nantucket, MA",41.25305556,-70.06
ACT,Waco Regional,"Waco, TX",31.61222222,-97.23027778
ACV,California Redwood Coast Humboldt County,"Arcata/Eureka, CA",40.97777778,-124.10833329999998
ACY,Atlantic City International,"Atlantic City, NJ",39.4575,-74.57722222
ADK,Adak,"Adak Island, AK",51.88361111,-176.6425
ADM,Ardmore Municipal,"Ardmore, OK",34.30388889,-97.02055556
ADQ,Kodiak Airport,"Kodiak, AK",57.74972222,-152.4938889
ADS,Addison,"Dallas, TX",32.96861111,-96.83638889
ADW,Joint Base Andrews,"Camp Springs, MD",38.81083333,-76.86694444
AED,Aleneva Airport,"Aleneva, AK",58.03333333,-152.9
AET,Allakaket Airport,"Allakaket, AK",66.55194444,-152.62222219999998
AEX,Alexandria International,"Alexandria, LA",31.3275,-92.54861111
AFF,USAF Academy Airfield,"Colorado Springs, CO",38.97416667,-104.81777779999999
AFK,Nebraska City Municipal,"Nebraska, NE",40.60666667,-95.86666667
AFO,Afton Municipal,"Afton, WY",42.70888889,-110.9422222
AFP,Anson County Jeff Cloud Field,"Wadesboro, NC",35.02055556,-80.07722222
AFW,Fort Worth Alliance,"Dallas/Fort Worth, TX",32.99027778,-97.31944444
AGC,Allegheny County,"Pittsburgh, PA",40.35444444,-79.92916667
AGN,Angoon Seaplane Base,"Angoon, AK",57.50388889,-134.58333330000002
AGS,Augusta Regional at Bush Field,"Augusta, GA",33.37,-81.96444444
AHD,Ardmore Downtown Executive,"Ardmore, OK",34.14694444,-97.12277778
AHN,Athens/Ben Epps,"Athens, GA",33.94861111,-83.32583333
AHT,Amchitka,"Amchitka Island, AK",51.37861111,179.2586111
AIA,Alliance Municipal,"Alliance, NE",42.05333333,-102.8036111
AIB,Anita Bay Airport,"Anita Bay, AK",56.19,-132.44583329999998
AID,Anderson Municipal-Darlington Field,"Anderson, IN",40.10861111,-85.61305556
AIK,Aiken Municipal,"Aiken, SC",33.64944444,-81.685
AIN,Wainwright Airport,"Wainwright, AK",70.63805556,-159.99472219999998
AIY,Bader Field,"Atlantic City, NJ",39.36,-74.45722222
AIZ,Lee C Fine Memorial,"Lake of the Ozarks, MO",38.09611111,-92.54944444
AKB,Atka Airport,"Atka, AK",52.22055556,-174.20611110000002
AKC,Akron Fulton International,"Akron, OH",41.0375,-81.46694444
AKI,Akiak Airport,"Akiak, AK",60.90277778,-161.23055559999997
AKK,Akhiok Airport,"Akhiok, AK",56.93861111,-154.1825
AKN,King Salmon Airport,"King Salmon, AK",58.67638889,-156.6486111
AKO,Colorado Plains Regional,"Akron, CO",40.17555556,-103.2219444
AKP,Anaktuvuk Pass Airport,"Anaktuvuk Pass, AK",68.13361111,-151.74333330000002
AL1,Albertville Regional-Thomas J Brumlik Field,"Albertville, AL",34.22916667,-86.25583333
AL2,Shelby County,"Alabaster, AL",33.17777778,-86.78333333
AL3,Huntsville Executive Airport Tom Sharp Jr,"Huntsville, AL",34.85944444,-86.5575
ALB,Albany International,"Albany, NY",42.74916667,-73.80194444
ALE,Alpine Casparis Municipal,"Alpine, TX",30.38416667,-103.6836111
ALI,Alice International,"Alice, TX",27.74083333,-98.02694444
ALM,Alamogordo White Sands Regional,"Alamogordo, NM",32.83944444,-105.9911111
ALN,St. Louis Regional,"Alton, IL",38.89,-90.04611111
ALO,Waterloo Regional,"Waterloo, IA",42.55694444,-92.40027778
ALS,San Luis Valley Regional/Bergman Field,"Alamosa, CO",37.435,-105.8677778
ALW,Walla Walla Regional,"Walla Walla, WA",46.09527778,-118.2858333
ALX,Thomas C. Russell Field,"Alexander City, AL",32.91472222,-85.96305556
ALZ,Alitak Seaplane Base,"Lazy Bay, AK",56.89583333,-154.24583330000002
AMA,Rick Husband Amarillo International,"Amarillo, TX",35.21944444,-101.7058333
AMK,Animas Air Park,"Durango, CO",37.20305556,-107.86916670000001
AMN,Gratiot Community,"Alma, MI",43.32222222,-84.68805556
AMW,Ames Municipal,"Ames, IA",41.99194444,-93.62194444
ANA,Anaheim-Disneyland HP,"Anaheim, CA",33.81666667,-117.93333329999999
ANB,Anniston Regional,"Anniston, AL",33.58805556,-85.85805556
ANC,Ted Stevens Anchorage International,"Anchorage, AK",61.17416667,-149.9980556
AND,Anderson Regional,"Anderson, SC",34.49444444,-82.70944444
ANI,Aniak Airport,"Aniak, AK",61.58166667,-159.54305559999997
ANN,Annette Island,"Annette, AK",55.04222222,-131.57083329999998
ANP,Lee,"Annapolis, MD",38.94277778,-76.56833333
ANV,Anvik Airport,"Anvik, AK",62.64722222,-160.19
AOH,Lima Allen County,"Lima, OH",40.70833333,-84.02694444
AOO,Altoona-Blair County,"Altoona, PA",40.29638889,-78.32
AOS,Amook Bay Airport,"Amook Bay, AK",57.45472222,-153.81305559999998
APA,Centennial,"Denver, CO",39.57,-104.8494444
APC,Napa County,"Napa, CA",38.21305556,-122.28055559999999
APF,Naples Municipal,"Naples, FL",26.1525,-81.77555556
APG,Phillips AAF,"Aberdeen, MD",39.46555556,-76.16833333
APN,Alpena County Regional,"Alpena, MI",45.07805556,-83.56027778
APT,Marion County Brown Field,"Jasper, TN",35.06055556,-85.58527778
APV,Apple Valley Airport,"Apple Valley, CA",34.57527778,-117.1861111
AQY,Girdwood Airport,"Girdwood, AK",60.96888889,-149.11944440000002
AR1,Russellville Regional,"Russellville, AR",35.25916667,-93.09333333
AR2,Dennis F Cantrell Field,"Conway, AR",35.08111111,-92.42444444
ARA,Acadiana Regional,"New Iberia, LA",30.03777778,-91.88388889
ARB,Ann Arbor Municipal,"Ann Arbor, MI",42.22305556,-83.74555556
ARC,Arctic Village Airport,"Arctic Village, AK",68.11472222,-145.5794444
ARE,Antonio/Nery/Juarbe Pol,"Arecibo, PR",18.45083333,-66.67555556
ARG,Walnut Ridge Regional,"Walnut Ridge, AR",36.12472222,-90.925
ART,Watertown International,"Watertown, NY",43.99194444,-76.01944444
ARV,Lakeland/Noble F. Lee Memorial Field,"Minocqua/Woodruff, WI",45.92805556,-89.73083333
ARX,Asbury Park/Monmouth County,"Asbury Park, NJ",40.18333333,-74.11666667
ASE,Aspen Pitkin County Sardy Field,"Aspen, CO",39.22194444,-106.86833329999999
ASH,Boire Field,"Nashua, NH",42.7825,-71.51416667
ASL,Harrison County,"Marshall, TX",32.52055556,-94.30777778
ASN,Talladega Municipal,"Talladega, AL",33.56944444,-86.05111111
ASQ,Austin Airport,"Austin, NV",39.46805556,-117.1975
AST,Astoria Regional,"Astoria/Seaside, OR",46.15805556,-123.8786111
ASX,John F Kennedy Memorial,"Ashland, WI",46.54861111,-90.91888889
ASY,Ashley Municipal,"Ashley, ND",46.02305556,-99.35277778
ATE,Antlers Municipal,"Antlers, OK",34.1925,-95.64972222
ATK,Atqasuk Edward Burnell Sr. Memorial,"Atqasuk, AK",70.46722222,-157.4355556
ATL,Hartsfield-Jackson Atlanta International,"Atlanta, GA",33.63666667,-84.42777778
ATO,Ohio University,"Athens, OH",39.21194444,-82.22916667
ATS,Artesia Municipal,"Artesia, NM",32.85194444,-104.4675
ATT,Atmautluak Airport,"Atmautluak, AK",60.86777778,-162.2741667
ATU,Casco Cove CGS,"Attu, AK",52.8325,173.1755556
ATW,Appleton International,"Appleton, WI",44.25805556,-88.51916667
ATY,Watertown Regional,"Watertown, SD",44.91388889,-97.15472222
AUG,Augusta State,"Augusta/Waterville, ME",44.32055556,-69.79722222
AUK,Alakanuk Airport,"Alakanuk, AK",62.68305556,-164.72222219999998
AUM,Austin Municipal,"Austin/Albert Lea, MN",43.66277778,-92.93305556
AUN,Auburn Municipal,"Auburn, CA",38.95472222,-121.08166670000001
AUO,Auburn University Regional,"Auburn, AL",32.615,-85.43388889
AUS,Austin - Bergstrom International,"Austin, TX",30.19444444,-97.67
AUW,Wausau Downtown,"Wausau, WI",44.92638889,-89.62666667
AUZ,Aurora Municipal,"Aurora, IL",41.77194444,-88.47555556
AVL,Asheville Regional,"Asheville, NC",35.43444444,-82.54277778
AVO,Avon Park Executive,"Avon Park, FL",27.59138889,-81.52888889
AVP,Wilkes Barre Scranton International,"Scranton/Wilkes-Barre, PA",41.33833333,-75.72333333
AVW,Marana Regional,"Tucson, AZ",32.40944444,-111.21833329999998
AVX,Catalina,"Avalon, CA",33.405,-118.41583329999999
AWK,Wake Island Airfield,"Wake Island, TT",19.2825,166.63666669999998
AWM,West Memphis Municipal,"West Memphis, AR",35.135,-90.23444444
AWX,Andrews County,"Andrews, TX",32.33083333,-102.52972220000001
AXB,Maxson Airfield,"Alexandria Bay, NY",44.31666667,-75.89972222
AXN,Chandler Field,"Alexandria, MN",45.86638889,-95.39472222
AXS,Altus/Quartz Mountain Regional,"Altus, OK",34.69888889,-99.33833333
AXV,Neil Armstrong,"Wapakoneta, OH",40.49361111,-84.29805556
AXX,Angel Fire,"Eagle Nest, NM",36.42194444,-105.29
AYS,Waycross-Ware County,"Waycross, GA",31.24833333,-82.39527778
AZ1,Valle,"Grand Canyon, AZ",35.65055556,-112.14805559999999
AZ2,H. A. Clark Memorial Field,"Williams, AZ",35.30555556,-112.19444440000001
AZ3,Glendale Municipal,"Glendale, AZ",33.52694444,-112.2952778
AZA,Phoenix - Mesa Gateway,"Phoenix, AZ",33.30777778,-111.65555559999999
AZO,Kalamazoo/Battle Creek International,"Kalamazoo, MI",42.23444444,-85.55166667
B19,Biddeford Municipal,"Biddeford, ME",43.46416667,-70.4725
B21,Sugarloaf Regional,"Carrabassett, ME",45.08555556,-70.21638889
BAB,Beale AFB,"Marysville, CA",39.13611111,-121.43666670000002
BAD,Barksdale AFB,"Shreveport, LA",32.50194444,-93.6625
BAF,Westfield Barnes Regional,"Westfield, MA",42.15805556,-72.71583333
BAM,Battle Mountain Airport,"Battle Mountain, NV",40.59916667,-116.87444440000002
BAR,Baker AAF,"Baker Island, AK",55.36666667,-133.6
BBC,Bay City Regional,"Bay City, TX",28.97333333,-95.86333333
BBF,N Eng Heliport,"Burlington, MA",42.50833333,-71.18333333
BBX,Wings Field,"Blue Bell, PA",40.1375,-75.26527778
BCB,Virginia Tech/Montgomery Executive,"Blacksburg, VA",37.20777778,-80.40777778
BCC,Bear Creek Airport,"Bear Creek, AK",57.6175,-155.8672222
BCE,Bryce Canyon Airport,"Bryce Canyon, UT",37.70638889,-112.14583329999999
BCJ,Baca Grande,"Crestone, CO",37.96666667,-105.76666670000002
BCS,Southern Seaplane,"Belle Chasse, LA",29.86611111,-90.02222222
BCT,Boca Raton Public,"Boca Raton, FL",26.37083333,-80.10833333
BDE,Baudette International,"Baudette, MN",48.72833333,-94.61222222
BDG,Blanding Municipal,"Blanding, UT",37.58333333,-109.48333329999998
BDL,Bradley International,"Hartford, CT",41.93916667,-72.68333333
BDR,Igor I Sikorsky Memorial,"Bridgeport, CT",41.16333333,-73.12611111
BDY,Bandon State,"Bandon, OR",43.08638889,-124.40777779999999
BED,Laurence G Hanscom Field,"Bedford, MA",42.47,-71.28888889
BEH,Southwest Michigan Regional,"Benton Harbor/St. Joseph, MI",42.12861111,-86.42611111
BET,Bethel Airport,"Bethel, AK",60.77861111,-161.83722219999999
BFB,Blue Fox Bay Airport,"Blue Fox Bay, AK",58.18333333,-152.1333333
BFD,Bradford Regional,"Bradford, PA",41.80305556,-78.64
BFF,Western Neb. Regional/William B. Heilig Field,"Scottsbluff, NE",41.87416667,-103.5955556
BFI,Boeing Field/King County International,"Seattle, WA",47.53,-122.30194440000001
BFK,Buckley AFB,"Aurora, CO",39.70166667,-104.7516667
BFL,Meadows Field,"Bakersfield, CA",35.43388889,-119.0577778
BFM,Mobile Downtown,"Mobile, AL",30.62666667,-88.06805556
BFP,Beaver County,"Beaver Falls, PA",40.7725,-80.39138889
BFR,Virgil I Grissom Municipal,"Bedford, IN",38.84,-86.44527778
BFT,Beaufort County,"Beaufort, SC",32.41222222,-80.63444444
BGD,Hutchinson County,"Borger, TX",35.70083333,-101.39361109999999
BGE,Decatur County Industrial Air Park,"Bainbridge, GA",30.97166667,-84.63694444
BGM,Greater Binghamton/Edwin A. Link Field,"Binghamton, NY",42.20833333,-75.97972222
BGQ,Big Lake Airport,"Big Lake, AK",61.53472222,-149.8125
BGR,Bangor International,"Bangor, ME",44.8075,-68.82805556
BGS,Big Spring McMahon-Wrinkle,"Big Spring, TX",32.2125,-101.5216667
BGT,Bagdad Airport,"Bagdad, AZ",34.59277778,-113.17194440000002
BHB,Hancock County-Bar Harbor,"Bar Harbor, ME",44.44972222,-68.36166667
IFP,Laughlin/Bullhead International,"Bullhead City, AZ",35.15472222,-114.55944440000002
BHM,Birmingham-Shuttlesworth International,"Birmingham, AL",33.56388889,-86.75222222
BIC,Big Creek Airport,"Big Creek, AK",57.66666667,-157.58333330000002
BID,Block Island State,"Block Island, RI",41.16805556,-71.57777778
BIE,Beatrice Municipal,"Beatrice, NE",40.30138889,-96.75416667
BIF,Biggs AAF,"El Paso, TX",31.84944444,-106.38
BIG,Allen AAF,"Big Delta, AK",63.99472222,-145.72027780000002
BIH,Bishop Airport,"Bishop, CA",37.37305556,-118.3636111
BIL,Billings Logan International,"Billings, MT",45.80777778,-108.5436111
BIS,Bismarck Municipal,"Bismarck/Mandan, ND",46.77277778,-100.7458333
BIX,Keesler AFB,"Biloxi, MS",30.41055556,-88.92444444
BJC,Rocky Mountain Metro,"Broomfield, CO",39.90888889,-105.1172222
BJI,Bemidji Regional,"Bemidji, MN",47.51083333,-94.93472222
BJJ,Wayne County,"Wooster, OH",40.87472222,-81.88833333
BKC,Buckland Airport,"Buckland, AK",65.98166667,-161.1491667
BKE,Baker City Municipal,"Baker, OR",44.83722222,-117.80916670000002
BKF,Brooks Lake Airport,"Brooks Lake, AK",58.6,-156.2333333
BKG,Branson Airport,"Branson, MO",36.53194444,-93.20055556
BKH,Barking Sands PMRF,"Kekaha, Kauai, HI",22.02277778,-159.785
BKL,Burke Lakefront,"Cleveland, OH",41.51777778,-81.68277778
BKW,Raleigh County Memorial,"Beckley, WV",37.78722222,-81.12416667
BKX,Brookings Regional,"Brookings, SD",44.30444444,-96.81888889
BLD,Boulder City Municipal,"Boulder City, NV",35.9475,-114.8613889
BLF,Mercer County,"Princeton/Bluefield, WV",37.29583333,-81.20777778
BLH,Blythe Airport,"Blythe, CA",33.61916667,-114.71694440000002
BLI,Bellingham International,"Bellingham, WA",48.79277778,-122.5375
BLM,Monmouth Executive,"Belmar/Farmingdale, NJ",40.18666667,-74.12444444
BLV,Scott AFB/MidAmerica,"Belleville, IL",38.54527778,-89.83527778
BMC,Brigham City Airport,"Brigham City, UT",41.55444444,-112.06222220000001
BMG,Monroe County,"Bloomington, IN",39.14611111,-86.61666667
BMI,Central Illinois Regional,"Bloomington/Normal, IL",40.47722222,-88.91583333
BML,Berlin Regional,"Berlin, NH",44.57527778,-71.17583333
BMX,Big Mountain AFS,"Big Mountain, AK",59.36111111,-155.2588889
BNA,Nashville International,"Nashville, TN",36.12444444,-86.67805556
BNF,Warm Spring Bay Seaplane Base,"Baranof, AK",57.08916667,-134.8313889
BNG,Banning Municipal,"Banning, CA",33.9225,-116.85083329999999
BNL,Barnwell Regional,"Barnwell, SC",33.25777778,-81.38833333
BNO,Burns Municipal,"Burns, OR",43.59194444,-118.95555559999998
BOI,Boise Air Terminal,"Boise, ID",43.56444444,-116.22277779999999
BOK,Brookings Airport,"Brookings, OR",42.07444444,-124.29
BOS,Logan International,"Boston, MA",42.36305556,-71.00638889
BOW,Bartow Municipal,"Bartow, FL",27.94333333,-81.78333333
BPT,Jack Brooks Regional,"Beaumont/Port Arthur, TX",29.95083333,-94.02055556
BQK,Brunswick Golden Isles,"Brunswick, GA",31.25916667,-81.46638889
BQN,Rafael Hernandez,"Aguadilla, PR",18.49472222,-67.12944444
BQV,Bartlett Cove Seaplane Base,"Bartlett Cove, AK",58.45527778,-135.8852778
BRD,Brainerd Lakes Regional,"Brainerd, MN",46.40416667,-94.13361111
BRG,Whitesburg Municipal,"Whitesburg, KY",37.11666667,-82.81666667
BRL,Southeast Iowa Regional,"Burlington, IA",40.78333333,-91.12555556
BRO,Brownsville South Padre Island International,"Brownsville, TX",25.91083333,-97.42888889
BRW,Wiley Post/Will Rogers Memorial,"Barrow, AK",71.28472222,-156.76861110000002
BRY,Samuels Field,"Bardstown, KY",37.81444444,-85.49972222
BSM,Bergstrom AFB,"Austin, TX",30.19472222,-97.67666667
BSQ,Bisbee Municipal,"Bisbee, AZ",31.36388889,-109.88305559999999
BSW,Boswell Bay Airport,"Boswell Bay, AK",60.42305556,-146.14583330000002
A2K,Bartletts Airport,"Bartletts, AK",58.23305556,-157.3663889
BTI,Barter Island Airport,"Barter Island, AK",70.11305556,-143.6536111
BTL,W K Kellogg,"Battle Creek, MI",42.30638889,-85.25
BTM,Bert Mooney,"Butte, MT",45.95472222,-112.4975
BTP,Pittsburgh Butler Regional,"Butler, PA",40.77666667,-79.95111111
BTR,Baton Rouge Metropolitan/Ryan Field,"Baton Rouge, LA",30.53305556,-91.15
BTT,Bettles Airport,"Bettles, AK",66.91388889,-151.5291667
BTV,Burlington International,"Burlington, VT",44.47194444,-73.15333333
BTY,Beatty Airport,"Beatty, NV",36.86111111,-116.78638889999999
BUF,Buffalo Niagara International,"Buffalo, NY",42.94055556,-78.73055556
BUM,Butler Memorial,"Butler, MO",38.28972222,-94.34027778
BUR,Bob Hope,"Burbank, CA",34.20055556,-118.3586111
BVD,Beaver Inlet Seaport,"Beaver Inlet, AK",53.8325,-166.3025
BVO,Bartlesville Municipal,"Bartlesville, OK",36.76333333,-96.01111111
BVR,Beaver Island,"St. James, MI",45.69222222,-85.56666667
BVX,Batesville Regional,"Batesville, AR",35.72611111,-91.6475
BVY,Beverly Regional,"Beverly, MA",42.58416667,-70.91611111
BWD,Brownwood Regional,"Brownwood, TX",31.79361111,-98.95638889
BWG,Bowling Green-Warren County Regional,"Bowling Green, KY",36.96444444,-86.41972222
BWI,Baltimore/Washington International Thurgood Marshall,"Baltimore, MD",39.17583333,-76.66888889
BWM,Bowman Municipal,"Bowman, ND",46.18694444,-103.4280556
BWS,Blaine Municipal,"Blaine, WA",48.99,-122.7325
BXC,Sheraton Inn Heliport,"Boxborough, MA",42.48472222,-71.54444444
BXS,Borrego Valley,"Borrego Springs, CA",33.25916667,-116.32083329999999
BYA,Boundary Airport,"Boundary, AK",64.07833333,-141.11333330000002
RKH,Rock Hill/York County/Bryant Field,"Rock Hill, SC",34.98777778,-81.05722222
BYG,Johnson County,"Buffalo, WY",44.38111111,-106.72166670000001
BYH,Arkansas International,"Blytheville, AR",35.96444444,-89.94388889
BYI,Burley Municipal,"Burley/Rupert, ID",42.5425,-113.77166670000001
MI5,Boyne Mountain,"Boyne Falls, MI",45.16583333,-84.92416667
BYW,Blakely Island Airport,"Blakely Island, WA",48.57888889,-122.8263889
BZN,Bozeman Yellowstone International,"Bozeman, MT",45.77722222,-111.1502778
BZS,Buzzards Point Seaplane Base,"Washington, DC",38.86333333,-77.01333333
BZT,Eagle Air Park,"Brazoria, TX",28.98222222,-95.57972222
C01,Camarillo Airport,"Camarillo, CA",34.21361111,-119.09444440000001
C02,Bakersfield Municipal,"Bakersfield, CA",35.32472222,-118.99611110000001
CAD,Wexford County,"Cadillac, MI",44.27527778,-85.41888889
CAE,Columbia Metropolitan,"Columbia, SC",33.93888889,-81.11944444
CAK,Akron-Canton Regional,"Akron, OH",40.915,-81.44361111
CAR,Caribou Municipal,"Caribou, ME",46.87166667,-68.01805556
CBA,Corner Bay Airport,"Corner Bay, AK",57.73777778,-135.12555559999998
CBE,Greater Cumberland Regional,"Cumberland, MD",39.61527778,-78.76138889
CBF,Council Bluffs Municipal,"Council Bluffs, IA",41.26,-95.75861111
CBK,Murray,"Colby, KS",39.40388889,-101.0466667
CBM,Columbus AFB,"Columbus, MS",33.64527778,-88.44583333
CCR,Buchanan Field,"Concord, CA",37.98972222,-122.05694440000002
CCY,Northeast Iowa Regional,"Charles City, IA",43.0725,-92.61083333
CDB,Cold Bay Airport,"Cold Bay, AK",55.20583333,-162.7263889
CDC,Cedar City Regional,"Cedar City, UT",37.70083333,-113.09888889999999
CDH,Harrell Field,"Camden, AR",33.62277778,-92.76333333
CDL,Candle 2,"Candle, AK",65.90777778,-161.9263889
CDN,Woodward Field,"Camden, SC",34.28361111,-80.56472222
CDR,Chadron Municipal,"Chadron, NE",42.8375,-103.09527779999999
CDV,Merle K Mudhole Smith,"Cordova, AK",60.49166667,-145.4775
CDW,Essex County,"Caldwell, NJ",40.87527778,-74.28138889
CEA,Cessna Aircraft Field,"Wichita, KS",37.64861111,-97.25055556
CEC,Jack McNamara Field,"Crescent City, CA",41.78027778,-124.23666670000001
CEF,Westover ARB Metropolitan,"Chicopee Falls, MA",42.19388889,-72.53472222
CEM,Central Airport,"Central, AK",65.57388889,-144.7808333
CEU,Oconee County Regional,"Clemson, SC",34.67222222,-82.88583333
CEV,Mettel Field,"Connersville, IN",39.69805556,-85.13111111
CEW,Bob Sikes,"Crestview, FL",30.77888889,-86.52222222
CEX,Chena Hot Springs Airport,"Chena Hot Springs, AK",65.05194444,-146.0475
CEY,Kyle-Oakley Field,"Murray, KY",36.66444444,-88.37277778
CEZ,Cortez Municipal,"Cortez, CO",37.30305556,-108.62805559999998
CFA,Coffee Point Airport,"Coffee Point, AK",58.21666667,-157.5
CFT,Greenlee County,"Clifton, AZ",32.95694444,-109.2111111
CFV,Coffeyville Municipal,"Coffeyville, KS",37.09388889,-95.57194444
CGA,Craig Seaplane Base,"Craig, AK",55.47916667,-133.1461111
CGE,Cambridge Dorchester Regional,"Cambridge, MD",38.53944444,-76.03027778
CGF,Cuyahoga County,"Cleveland, OH",41.565,-81.48638889
CGI,Cape Girardeau Regional,"Cape Girardeau, MO",37.22527778,-89.57083333
CGS,College Park Airport,"College Park, MD",38.98055556,-76.92222222
CGX,Meigs Field,"Chicago, IL",41.85888889,-87.60833333
CGZ,Casa Grande Municipal,"Casa Grande, AZ",32.955,-111.76694440000001
CHA,Lovell Field,"Chattanooga, TN",35.03527778,-85.20361111
CHD,Chandler Municipal,"Chandler, AZ",33.26916667,-111.8111111
CHI,Chicago Metropolitan Area,"Chicago, IL",41.87388889,-87.75555556
CHL,Challis Airport,"Challis, ID",44.52361111,-114.21805559999999
CHO,Charlottesville Albemarle,"Charlottesville, VA",38.13972222,-78.45222222
CHP,Circle Hot Springs Airport,"Circle Hot Springs, AK",65.48583333,-144.6116667
CHS,Charleston AFB/International,"Charleston, SC",32.89861111,-80.04055556
CHU,Chuathbaluk Airport,"Chuathbaluk, AK",61.57916667,-159.2155556
CHZ,Chiloquin State,"Chiloquin, OR",42.57944444,-121.87888889999999
CIB,Catalina,"Avalon, CA",33.405,-118.41583329999999
CIC,Chico Municipal,"Chico, CA",39.79527778,-121.85833329999998
CID,The Eastern Iowa,"Cedar Rapids/Iowa City, IA",41.88472222,-91.71083333
CIG,Craig-Moffat,"Craig, CO",40.49527778,-107.52166670000001
CIK,Chalkyitsik Airport,"Chalkyitsik, AK",66.645,-143.74
CIL,Council Airport,"Council, AK",64.89666667,-163.7036111
CIN,Arthur N Neu,"Carroll, IA",42.04666667,-94.78861111
CIR,Cairo Regional,"Cairo, IL",37.06416667,-89.21944444
CIU,Chippewa County International,"Sault Ste. Marie, MI",46.25083333,-84.4725
CIV,Chomley Airport,"Chomley, AK",55.24777778,-132.3236111
CJI,Crafton Island Airport,"Crafton Island, AK",60.50277778,-147.94027780000002
CJW,Clay Center Municipal,"Clay Center, KS",39.38722222,-97.15722222
CKB,North Central West Virginia,"Clarksburg/Fairmont, WV",39.29777778,-80.2275
CKD,Crooked Creek Airport,"Crooked Creek, AK",61.86777778,-158.135
CKE,Pearce Field,"Clear Lake, CA",38.93472222,-122.62222220000001
CKM,Fletcher Field,"Clarksdale, MS",34.29972222,-90.51222222
CKU,Cordova Municipal,"Cordova, AK",60.54361111,-145.7258333
CKV,Outlaw Field,"Clarksville, TN",36.62194444,-87.415
CKX,Chicken Airport,"Chicken, AK",64.06666667,-141.95138889999998
CLC,Clear Lake Metroport,"Clear Lake City, TX",29.55694444,-95.1375
CLD,McClellan-Palomar,"Carlsbad, CA",33.12833333,-117.28
CLE,Cleveland-Hopkins International,"Cleveland, OH",41.40944444,-81.85472222
CLF,Clear Mews,"Clear, AK",64.30166667,-149.11777780000003
CLG,New Coalinga Municipal,"Coalinga, CA",36.16222222,-120.29472220000001
CLI,Clintonville Municipal,"Clintonville, WI",44.61305556,-88.73083333
CLK,Clinton Regional,"Clinton, OK",35.53833333,-98.93277778
CLL,Easterwood Field,"College Station/Bryan, TX",30.58861111,-96.36388889
CLM,William R. Fairchild International,"Port Angeles, WA",48.12027778,-123.49972220000001
CLP,Clarks Point Airport,"Clarks Point, AK",58.83361111,-158.52944440000002
CLR,Cliff Hatfield Memorial,"Calipatria, CA",33.13138889,-115.52138889999999
CLS,Chehalis Centralia,"Chehalis, WA",46.67694444,-122.9827778
CLT,Charlotte Douglas International,"Charlotte, NC",35.21361111,-80.94916667
CLU,Columbus Municipal,"Columbus, IN",39.26194444,-85.89638889
CMH,John Glenn Columbus International,"Columbus, OH",39.99694444,-82.89222222
CMI,University of Illinois/Willard,"Champaign/Urbana, IL",40.03888889,-88.27777778
CMX,Houghton County Memorial,"Hancock/Houghton, MI",47.16833333,-88.48916667
CNE,Fremont County,"Canon City, CO",38.42861111,-105.10694440000002
CNK,Blosser Municipal,"Concordia, KS",39.54916667,-97.65222222
CNM,Cavern City Air Terminal,"Carlsbad, NM",32.3375,-104.2633333
CNO,Chino Airport,"Chino, CA",33.97472222,-117.6363889
CNW,TSTC Waco,"Waco, TX",31.63777778,-97.07416667
CNY,Canyonlands Field,"Moab, UT",38.755,-109.7547222
CO3,Marina Municipal,"Marina, CA",36.68166667,-121.7616667
COA,Columbia Airport,"Columbia, CA",38.03055556,-120.41444440000001
COD,Yellowstone Regional,"Cody, WY",44.52027778,-109.0238889
COE,Coeur d'Alene - Pappy Boyington Field,"Coeur d'Alene, ID",47.77444444,-116.81944440000001
COF,Patrick AFB,"Cocoa Beach, FL",28.235,-80.61
COM,Coleman Municipal,"Coleman, TX",31.84111111,-99.40361111
CON,Concord Municipal,"Concord, NH",43.20277778,-71.50222222
COS,City of Colorado Springs Municipal,"Colorado Springs, CO",38.80583333,-104.7008333
COT,Cotulla-La Salle County,"Cotulla, TX",28.45583333,-99.21722222
COU,Columbia Regional,"Columbia, MO",38.81722222,-92.21805556
CPR,Casper/Natrona County International,"Casper, WY",42.90583333,-106.46361110000001
CPS,Bi-State Parks,"St. Louis, MO",38.57138889,-90.15722222
CPX,Benjamin Rivera Noriega,"Culebra, PR",18.31305556,-65.30388889
CQL,Glen-Aspen,"Carbondale, CO",39.38888889,-107.16
HCW,Cheraw Municipal/Lynch Bellinger Field,"Cheraw, SC",34.71277778,-79.95694444
CRE,Grand Strand,"Myrtle Beach, SC",33.81166667,-78.72388889
CRG,Jacksonville Executive at Craig,"Jacksonville, FL",30.33638889,-81.51444444
CRP,Corpus Christi International,"Corpus Christi, TX",27.77222222,-97.5025
CRS,C David Campbell Field-Corsicana Municipal,"Corsicana, TX",32.02805556,-96.40055556
CRW,Yeager,"Charleston/Dunbar, WV",38.37583333,-81.59305556
CRX,Roscoe Turner,"Corinth, MS",34.915,-88.60361111
CSE,Buckhorn Ranch,"Crested Butte, CO",38.85194444,-106.9327778
CSG,Columbus Airport,"Columbus, GA",32.51638889,-84.93888889
CSM,Clinton Sherman,"Clinton, OK",35.33972222,-99.20055556
CSN,Carson,"Carson City, NV",39.19222222,-119.7325
CSP,Cape Spencer C.G. Helipad,"Cape Spencer, AK",58.19916667,-136.63888889999998
CSU,Cape Sabine Airport,"Cape Sabine, AK",69.02694444,-163.85416669999998
CSV,Crossville Memorial-Whitson Field,"Crossville, TN",35.95138889,-85.085
CTB,Cut Bank International,"Cut Bank, MT",48.60833333,-112.3761111
CTH,Chester County G. O. Carlson,"Coatesville, PA",39.97888889,-75.86555556
CTO,Calverton Executive Airpark,"Calverton, NY",40.915,-72.79194444
CTW,Cottonwood Airport,"Cottonwood, AZ",34.73,-112.03527779999999
CTX,Cortland County Chase Field,"Cortland, NY",42.59277778,-76.215
CTY,Cross City Airport,"Cross City, FL",29.63555556,-83.10472222
CUB,Jim Hamilton L. B. Owens,"Columbia, SC",33.97055556,-80.99527778
CUW,Cube Cove Airport,"Cube Cove, AK",57.94166667,-134.75
CVA,Civic Arena H/P,"Pittsburgh, PA",40.48333333,-80.21666667
CVG,Cincinnati/Northern Kentucky International,"Cincinnati, OH",39.04888889,-84.66777778
CVN,Clovis Municipal,"Clovis, NM",34.42666667,-103.0775
CVO,Corvallis Municipal,"Corvallis, OR",44.49722222,-123.28944440000001
CVS,Cannon AFB,"Clovis, NM",34.3825,-103.3225
CVX,Charlevoix Municipal,"Charlevoix, MI",45.30472222,-85.27527778
CWA,Central Wisconsin,"Mosinee, WI",44.7775,-89.66666667
CWI,Clinton Municipal,"Clinton, IA",41.83083333,-90.32888889
CWS,Center Island Airport,"Center Island, WA",48.49,-122.8322222
CXC,Chitina Airport,"Chitina, AK",61.58333333,-144.4297222
CXF,Coldfoot Airport,"Coldfoot, AK",67.25222222,-150.2038889
CXL,Calexico International,"Calexico, CA",32.6675,-115.5175
CXO,Conroe North Houston Regional,"Conroe, TX",30.35333333,-95.415
CYF,Chefornak Airport,"Chefornak, AK",60.13694444,-164.2791667
CYM,Chatham Airport,"Chatham, AK",57.51527778,-134.9444444
CYS,Cheyenne Regional/Jerry Olson Field,"Cheyenne, WY",41.15555556,-104.8105556
CYT,Yakataga,"Cape Yakataga, AK",60.08083333,-142.4955556
CZC,Copper Center 2,"Copper Center, AK",61.94111111,-145.29416669999998
CZF,Cape Romanzof LRRS,"Cape Romanzof, AK",61.78027778,-166.0386111
CZN,Chisana Airport,"Chisana, AK",62.07166667,-142.04944440000003
CZO,Chistochina Airport,"Chistochina, AK",62.56222222,-144.6725
CZP,Cape Pole Airport,"Cape Pole, AK",55.965,-133.7933333
DAB,Daytona Beach International,"Daytona Beach, FL",29.18,-81.05805556
DAG,Barstow/Daggett,"Daggett, CA",34.85361111,-116.78666670000001
DAL,Dallas Love Field,"Dallas, TX",32.84722222,-96.85166667
DAN,Danville Regional,"Danville, VA",36.5725,-79.33638889
DAY,James M Cox/Dayton International,"Dayton, OH",39.90222222,-84.21944444
DBN,W H Bud Barron,"Dublin, GA",32.56472222,-82.985
DBQ,Dubuque Regional,"Dubuque, IA",42.40194444,-90.70944444
DCA,Ronald Reagan Washington National,"Washington, DC",38.85138889,-77.03777778
DCK,Dahl Creek Airport,"Dahl Creek, AK",66.9425,-156.8913889
DCU,Pryor Field Regional,"Decatur, AL",34.65416667,-86.94527778
DDC,Dodge City Regional,"Dodge City, KS",37.76305556,-99.96555556
DDP,Dorado Airport,"Dorado, PR",18.46388889,-66.29333333
DEC,Decatur Airport,"Decatur, IL",39.83444444,-88.86555556
DEH,Decorah Municipal,"Decorah, IA",43.27555556,-91.73944444
DEN,Denver International,"Denver, CO",39.86166667,-104.6730556
DET,Coleman A. Young Municipal,"Detroit, MI",42.40944444,-83.01027778
DFI,Defiance Memorial,"Defiance, OH",41.3375,-84.42888889
DFW,Dallas/Fort Worth International,"Dallas/Fort Worth, TX",32.89722222,-97.03777778
DGB,Danger Bay Airport,"Danger Bay, AK",58.13333333,-152.55
DGW,Converse County,"Douglas, WY",42.79722222,-105.38583329999999
DHN,Dothan Regional,"Dothan, AL",31.32111111,-85.44944444
DHT,Dalhart Municipal,"Dalhart, TX",36.0225,-102.5475
DIK,Dickinson - Theodore Roosevelt Regional,"Dickinson, ND",46.79722222,-102.8019444
DIO,Diomede Heliport,"Diomede Island, AK",65.75861111,-168.9530556
DJN,Delta Junction Airport,"Delta Junction, AK",64.05,-145.7225
DKK,Chautauqua County/Dunkirk,"Dunkirk, NY",42.49388889,-79.27111111
DLF,Laughlin AFB,"Del Rio, TX",29.35944444,-100.7780556
DLG,Dillingham Airport,"Dillingham, AK",59.04472222,-158.50555559999998
DLH,Duluth International,"Duluth, MN",46.84194444,-92.19361111
DLL,Dillon County,"Dillon, SC",34.44916667,-79.36861111
DLO,Dolomi Airport,"Dolomi, AK",55.12222222,-132.05
DLS,Columbia Gorge Regional/The Dalles Municipal,"The Dalles, OR",45.61944444,-121.16833329999999
DMA,Davis Monthan AFB,"Tucson, AZ",32.16638889,-110.88305559999999
DMN,Deming Municipal,"Deming, NM",32.2625,-107.7188889
DMO,Sedalia Regional,"Sedalia, MO",38.7075,-93.17583333
DNC,Duncan Canal Airport,"Duncan Canal, AK",56.75694444,-133.22166670000001
DNE,Dallas North,"Dallas/Fort Worth, TX",33.07888889,-96.73833333
DNL,Daniel Field,"Augusta, GA",33.46666667,-82.03944444
DNN,Dalton Municipal,"Dalton, GA",34.72305556,-84.87027778
DNV,Vermilion Regional,"Danville, IL",40.19972222,-87.59555556
DOF,Dora Bay Airport,"Dora Bay, AK",55.23333333,-132.21666670000002
DOV,Dover AFB,"Dover, DE",39.12944444,-75.46583333
DPA,Du Page County,"Chicago, IL",41.91555556,-88.24666667
DPG,Michael AAF,"Dugway, UT",40.1975,-112.935
AA8,Badami,"Deadhorse, AK",70.1375,-147.03055559999999
DQC,Sebastian Municipal,"Sebastian, FL",27.81333333,-80.49555556
DQD,Allen H Tigert,"Soda Springs, ID",42.64861111,-111.58194440000001
DQE,Holtville Airport,"Holtville, CA",32.845,-115.2686111
DQG,Springfield Robertson County,"Springfield, TN",36.53666667,-86.92111111
DQH,Alpine Airstrip,"Alpine, AK",70.34416667,-150.94472219999997
DQI,Colusa County,"Colusa, CA",39.17888889,-121.99333329999999
DQJ,Dunn County Weydahl Field,"Killdeer, ND",47.39138889,-102.7719444
DQK,Wheeler-Sack AAF,"Fort Drum, NY",44.05583333,-75.71944444
DQL,Lake Hood Strip,"Anchorage, AK",61.18666667,-149.96527780000002
DQN,New Smyrna Beach Municipal,"New Smyrna Beach, FL",29.05555556,-80.94888889
DQO,Delhi Municipal,"Delhi, LA",32.41083333,-91.49861111
DQP,Marshall Field,"Georgetown, KY",38.23638889,-89.35861111
DQQ,Cozad Municipal,"Cozad, NE",40.86972222,-100.0041667
DQR,Grand Canyon West,"Peach Springs, AZ",35.98611111,-113.81694440000001
DQS,Grand Canyon Bar Ten Airstrip,"Whitmore, AZ",36.25638889,-113.23083329999999
DQU,Neets Bay,"Ketchikan, AK",55.77888889,-131.6013889
DQV,Glacier Point,"Haines, AK",59.1025,-135.38222219999997
DQW,Hualapai,"Peach Springs, AZ",35.57222222,-113.2925
DQX,Tsui River Airport,"Tsui River, AK",60.07472222,-143.0866667
DQY,Cape Canaveral AFS Skid Strip,"Cape Canaveral, FL",28.4675,-80.56666667
DQZ,Platinum Mine,"Platinum, AK",58.91166667,-161.7138889
DRA,Desert Rock,"Mercury, NV",36.62,-116.0322222
DRE,Drummond Island Airport,"Drummond Island, MI",46.00944444,-83.74388889
DRF,Drift River Airport,"Drift River, AK",60.58888889,-152.1619444
DRG,Deering Airport,"Deering, AK",66.06916667,-162.7669444
DRO,Durango La Plata County,"Durango, CO",37.16388889,-107.7422222
DRT,Del Rio International,"Del Rio, TX",29.37416667,-100.9272222
DRU,Drummond Airport,"Drummond, MT",46.62083333,-113.205
DSI,Destin Executive,"Destin, FL",30.4,-86.47138889
DSM,Des Moines International,"Des Moines, IA",41.53416667,-93.6575
DTA,Delta Municipal,"Delta, UT",39.38361111,-112.5022222
DTH,Furnace Creek,"Death Valley, CA",36.46055556,-116.8797222
DTL,Detroit Lakes-Wething Field,"Detroit Lakes, MN",46.82527778,-95.88555556
DTN,Shreveport Downtown,"Shreveport, LA",32.54027778,-93.745
DTO,Denton Enterprise,"Denton, TX",33.20222222,-97.19805556
DTR,Decatur,"Decatur Island, WA",48.51,-122.8030556
DTT,Detroit Metropolitan Area,"Detroit, MI",42.31277778,-83.17861111
DTW,Detroit Metro Wayne County,"Detroit, MI",42.2125,-83.35333333
DUA,Eaker Field,"Durant, OK",33.93333333,-96.4
DUC,Halliburton Field,"Duncan, OK",34.47138889,-97.95972222
DUF,Pine Island,"Duck, NC",36.25361111,-75.78861111
DUG,Bisbee Douglas International,"Douglas, AZ",31.46888889,-109.6038889
DUJ,DuBois Regional,"DuBois, PA",41.17833333,-78.89861111
DUT,Unalaska Airport,"Unalaska, AK",53.89888889,-166.545
DVL,Devils Lake Regional,"Devils Lake, ND",48.11666667,-98.91
DVN,Davenport Municipal,"Davenport, IA",41.61027778,-90.58833333
DVT,Phoenix - Deer Valley,"Phoenix, AZ",33.68833333,-112.0825
DWA,Yolo County,"Davis/Woodland/Winters, CA",38.57944444,-121.85694440000002
DWH,David Wayne Hooks Memorial,"Houston, TX",30.06166667,-95.55277778
DWS,Walt Disney World,"Orlando, FL",28.38361111,-81.55
DXR,Danbury Municipal,"Danbury, CT",41.37166667,-73.48222222
DYS,Dyess AFB,"Abilene, TX",32.42055556,-99.85472222
EAA,Eagle Airport,"Eagle, AK",64.77805556,-141.14972219999999
EAG,Eagle Creek Strip,"Noatak, AK",67.56222222,-162.97527780000001
EAN,Phifer Airfield,"Wheatland, WY",42.05611111,-104.9386111
EAR,Kearney Regional,"Kearney, NE",40.72694444,-99.00666667
EAT,Pangborn Memorial,"Wenatchee, WA",47.39888889,-120.20694440000001
EAU,Chippewa Valley Regional,"Eau Claire, WI",44.86583333,-91.48416667
ECA,Iosco County,"East Tawas, MI",44.31277778,-83.42222222
ECG,Elizabeth City CGAS/Regional,"Elizabeth City, NC",36.26055556,-76.17444444
ECP,Northwest Florida Beaches International,"Panama City, FL",30.35833333,-85.79555556
ECS,Mondell Field,"Newcastle, WY",43.88416667,-104.3144444
ECU,Edwards County,"Rocksprings, TX",29.94694444,-100.17388890000001
EDA,Edna Bay Airport,"Edna Bay, AK",55.93638889,-133.65555559999999
EDE,Northeastern Regional,"Edenton, NC",36.02777778,-76.56722222
EDF,Elmendorf AFB,"Anchorage, AK",61.25138889,-149.8063889
EDW,Edwards AFB,"Edwards, CA",34.91805556,-117.87916670000001
EED,Needles Airport,"Needles, CA",34.76638889,-114.62333329999998
EEK,Eek Airport,"Eek, AK",60.21361111,-162.04388889999998
EEN,Dillant Hopkins,"Keene, NH",42.89833333,-72.27083333
EFB,Eight Fathom Bight Airport,"Eight Fathom Bight, AK",58.0,-135.7333333
EFD,Ellington,"Houston, TX",29.60722222,-95.15861111
EFK,Northeast Kingdom International,"Newport, VT",44.88805556,-72.22861111
EGA,Chenega Airport,"Chenega, AK",60.28333333,-148.08333330000002
EGE,Eagle County Regional,"Eagle, CO",39.64277778,-106.91583329999999
EGI,Duke Field,"Crestview, FL",30.64861111,-86.52194444
EGP,Eagle Pass Municipal,"Eagle Pass, TX",28.70222222,-100.4805556
EGT,Wellington Municipal,"Wellington, KS",37.32361111,-97.38833333
EGV,Eagle River Union,"Eagle River, WI",45.93222222,-89.26833333
EGX,Egegik Airport,"Egegik, AK",58.18555556,-157.37555559999998
EHM,Cape Newenham LRRS,"Cape Newenham, AK",58.64805556,-162.06305559999998
EHR,Eagle Harbor Airport,"Eagle Harbor, AK",57.41666667,-152.7166667
EHT,Rentschler Heliport,"East Hartford, CT",41.75333333,-72.62833333
EIL,Eielson AFB,"Fairbanks, AK",64.66555556,-147.1013889
EKA,Murray Field,"Eureka, CA",40.80333333,-124.11277779999999
EKI,Elkhart Municipal,"Elkhart, IN",41.71944444,-86.00333333
EKN,Elkins-Randolph County-Jennings Randolph Field,"Elkins, WV",38.88944444,-79.85722222
EKO,Elko Regional,"Elko, NV",40.825,-115.7913889
EKX,Addington Field,"Elizabethtown, KY",37.68611111,-85.925
EKY,Bessemer Airport,"Bessemer, AL",33.3125,-86.92638889
ELA,Eagle Lake Airport,"Eagle Lake, TX",29.60055556,-96.32194444
ELD,South Arkansas Regional at Goodwin Field,"El Dorado, AR",33.22083333,-92.81333333
ELI,Elim Airport,"Elim, AK",64.615,-162.2705556
ELM,Elmira/Corning Regional,"Elmira/Corning, NY",42.15972222,-76.89194444
ELN,Bowers Field,"Ellensburg, WA",47.03305556,-120.53055559999999
ELP,El Paso International,"El Paso, TX",31.80722222,-106.3763889
ELV,Elfin Cove Seaplane Base,"Elfin Cove, AK",58.2,-136.31666669999998
ELW,Ellamar Seaplane Base,"Ellamar, AK",60.89333333,-146.70833330000002
ELY,Ely Airport/Yelland Field,"Ely, NV",39.29972222,-114.84194440000002
EMK,Emmonak Airport,"Emmonak, AK",62.78611111,-164.49083330000002
EMM,Kemmerer Municipal,"Kemmerer, WY",41.82416667,-110.55694440000002
EMP,Emporia Municipal,"Emporia, KS",38.33055556,-96.19
EMT,San Gabriel Valley,"El Monte, CA",34.08611111,-118.0347222
ENA,Kenai Municipal,"Kenai, AK",60.57333333,-151.24472219999998
END,Vance AFB,"Enid, OK",36.33972222,-97.91722222
ENL,Centralia Municipal,"Centralia, IL",38.515,-89.09111111
ENN,Nenana Municipal,"Nenana, AK",64.54722222,-149.0738889
ENV,Wendover Airport,"Wendover, UT",40.71861111,-114.0286111
ENW,Kenosha Regional,"Kenosha, WI",42.59555556,-87.92777778
EOK,Keokuk Municipal,"Keokuk, IA",40.46,-91.42861111
EPH,Ephrata Municipal,"Ephrata/Moses Lake, WA",47.30805556,-119.51694440000001
ERI,Erie International/Tom Ridge Field,"Erie, PA",42.08305556,-80.17388889
ERV,Kerrville Municipal/Louis Schreiner Field,"Kerrville, TX",29.97666667,-99.08555556
ESC,Delta County,"Escanaba, MI",45.72277778,-87.09361111
ESD,Orcas Island,"Eastsound, WA",48.70833333,-122.91055559999998
ESF,Esler Regional,"Alexandria, LA",31.395,-92.29583333
ESN,Easton/Newnam Field,"Easton, MD",38.80416667,-76.06888889
ESP,Stroudsburg Pocono,"Stroudsburg, PA",41.03583333,-75.16055556
ETN,Eastland Municipal,"Eastland, TX",32.415,-98.80972222
ETS,Enterprise Municipal,"Enterprise, AL",31.29972222,-85.89972222
EUE,Eureka Airport,"Eureka, NV",39.60361111,-116.0036111
EUF,Weedon Field,"Eufaula, AL",31.95138889,-85.12888889
EUG,Mahlon Sweet Field,"Eugene, OR",44.12444444,-123.21194440000001
EVC,Eva Creek Airport,"Eva Creek, AK",64.04194444,-148.8630556
EVM,Eveleth Virginia Municipal,"Eveleth, MN",47.42416667,-92.49666667
EVV,Evansville Regional,"Evansville, IN",38.04083333,-87.52861111
EVW,Evanston-Uinta County Burns Field,"Evanston, WY",41.27472222,-111.0347222
EWB,New Bedford Regional,"New Bedford/Fall River, MA",41.67666667,-70.95777778
EWK,Newton City County,"Newton, KS",38.05694444,-97.27527778
EWN,Coastal Carolina Regional,"New Bern/Morehead/Beaufort, NC",35.07277778,-77.04305556
EWR,Newark Liberty International,"Newark, NJ",40.6925,-74.16861111
EXI,Excursion Inlet Seaplane Base,"Excursion Inlet, AK",58.42083333,-135.44722219999997
EYW,Key West International,"Key West, FL",24.55611111,-81.75944444
F70,French Valley,"Murrieta/Temecula, CA",33.57416667,-117.12833329999998
FAI,Fairbanks International,"Fairbanks, AK",64.815,-147.85638889999998
FAJ,Diego Jimenez Torres,"Fajardo, PR",18.30888889,-65.66166667
FAK,False Island Airport,"False Island, AK",57.51666667,-135.2166667
FAL,Falcon State Park,"Roma, TX",26.58333333,-99.13333333
FAM,Farmington Regional,"Farmington, MO",37.76111111,-90.42861111
FAR,Hector International,"Fargo, ND",46.92055556,-96.81583333
FAT,Fresno Yosemite International,"Fresno, CA",36.77666667,-119.7188889
FAU,Fairmount Island Airport,"Fairmount Island, AK",60.89611111,-147.44666669999998
FAY,Fayetteville Regional/Grannis Field,"Fayetteville, NC",34.99111111,-78.88027778
FBG,Simmons AAF,"Fort Bragg, NC",35.13194444,-78.93611111
FBK,Ladd AAF,"Fairbanks, AK",64.8375,-147.61444440000002
FBR,Fort Bridger Airport,"Fort Bridger, WY",41.39333333,-110.40583329999998
FBS,Friday Harbor Seaplane Base,"Friday Harbor, WA",48.5375,-123.00833329999999
FCA,Glacier Park International,"Kalispell, MT",48.31055556,-114.2561111
FCH,Fresno Chandler Executive,"Fresno, CA",36.73222222,-119.8202778
FCM,Flying Cloud,"Minneapolis, MN",44.8275,-93.45861111
FCS,Butts AAF,"Colorado Springs, CO",38.67972222,-104.7608333
FDK,Frederick Municipal,"Frederick, MD",39.4175,-77.37444444
FDR,Frederick Regional,"Frederick, OK",34.35222222,-98.98388889
FDY,Findlay Airport,"Findlay, OH",41.01194444,-83.66861111
FEP,Albertus,"Freeport, IL",42.24611111,-89.58194444
FET,Fremont Municipal,"Fremont, NE",41.45,-96.52111111
FEW,Francis E. Warren AFB Heliport,"Cheyenne, WY",41.13333333,-104.8672222
FFM,Fergus Falls Municipal-Einar Mickelson Field,"Fergus Falls, MN",46.28444444,-96.15666667
FFO,Wright-Patterson AFB,"Dayton, OH",39.82611111,-84.04833333
FFT,Capital City,"Frankfort, KY",38.18166667,-84.90666667
FHU,Sierra Vista Municipal-Libby AAF,"Fort Huachuca, AZ",31.58833333,-110.34444440000001
FIC,Fire Cove Airport,"Fire Cove, AK",55.77777778,-131.5375
FID,Elizabeth Field,"Fishers Island, NY",41.25138889,-72.03166667
FIL,Fillmore Municipal,"Fillmore, UT",38.95805556,-112.36305559999998
FKL,Venango Regional,"Franklin/Oil City, PA",41.3775,-79.86055556
FL1,Zephyrhills Municipal,"Zephyrhills, FL",28.22805556,-82.15611111
FL2,Valkaria Airport,"Valkaria, FL",27.96083333,-80.55833333
FL3,Vosikas,"Chipley, FL",30.78,-85.59805556
FL4,Flagler Executive,"Bunnell, FL",29.46527778,-81.20777778
FL5,Williston Municipal,"Williston, FL",29.35555556,-82.47194444
FLD,Fond Du Lac County,"Fond Du Lac, WI",43.77111111,-88.48833333
FLG,Flagstaff Pulliam,"Flagstaff, AZ",35.14027778,-111.66916670000002
FLJ,Falls Bay Airport,"Falls Bay, AK",60.51666667,-148.0
FLL,Fort Lauderdale-Hollywood International,"Fort Lauderdale, FL",26.07166667,-80.14972222
FLO,Florence Regional,"Florence, SC",34.18527778,-79.72388889
FLT,Flat Airport,"Flat, AK",62.45277778,-157.9891667
FLU,Flushing,"New York, NY",40.77916667,-73.83277778
FLV,Sherman AAF,"Leavenworth, KS",39.36833333,-94.91472222
FLX,Fallon Municipal,"Fallon, NV",39.49916667,-118.7488889
FMC,Five Mile Camp Airport,"Five Mile Camp, AK",65.92694444,-149.84
FMH,Cape Cod CGAS,"Falmouth, MA",41.65916667,-70.52277778
FMN,Four Corners Regional,"Farmington, NM",36.74138889,-108.23
FMS,Fort Madison Municipal,"Fort Madison, IA",40.65916667,-91.32777778
FMY,Page Field,"Fort Myers, FL",26.58666667,-81.86333333
FNL,Northern Colorado Regional,"Fort Collins/Loveland, CO",40.45194444,-105.0113889
FNR,Funter Bay,"Funter Bay Alaska, AK",58.25,-134.9
FNT,Bishop International,"Flint, MI",42.96555556,-83.74472222
FOB,Fort Bragg Airport,"Fort Bragg, CA",39.47444444,-123.79555559999999
FOD,Fort Dodge Regional,"Fort Dodge, IA",42.55111111,-94.19194444
FOE,Topeka Regional,"Topeka, KS",38.95083333,-95.66361111
FOK,Francis S. Gabreski,"Westhampton, NY",40.84361111,-72.63166667
FPR,Treasure Coast International,"Fort Pierce, FL",27.4975,-80.37277778
FPY,Perry-Foley,"Perry, FL",30.06916667,-83.58055556
FQA,Patching Lake Airport,"Patching Lake, AK",55.60611111,-131.4833333
FQB,San Nicolas Island NOLF,"Ventura, CA",33.23972222,-119.45833329999999
FQC,Lilly Lake,"Kodiak, AK",57.80555556,-152.38055559999998
FQD,Trident Volcano,"Katmai National Park, AK",58.235,-155.1036111
FQE,Annex Creek Airport,"Annex Creek, AK",58.31333333,-134.1041667
FQF,Davidson Creek Airport,"Davidson Creek, AK",58.35277778,-133.9913889
FQG,Snettisham Airport,"Snettisham, AK",58.13444444,-133.7294444
FQH,Fire Island Airport,"Fire Island, AK",61.16833333,-150.16055559999998
FQI,Georgetown Scott County Regional,"Scott, KY",38.23444444,-84.43472222
FQJ,Greens Creek Airport,"Greens Creek, AK",58.09861111,-134.76
FQK,Gull Cove Airport,"Gull Cove, AK",58.21472222,-136.1563889
FQL,Flora Municipal,"Flora, IL",38.665,-88.45305556
FQN,Karta Lake Airport,"Karta Lake, AK",55.56222222,-132.63055559999998
FQO,Manzanita Lake Airport,"Manzanita Lake, AK",55.56666667,-131.0563889
FQP,Shrimp Bay Airport,"Shrimp Bay, AK",55.83444444,-131.4847222
FQQ,Dry Bay Airport,"Dry Bay, AK",59.14666667,-138.5636111
FQR,Josephine Lake Airport,"Josephine Lake, AK",55.24361111,-132.57333329999997
FQU,Libby Airport,"Libby, MT",48.28388889,-115.49027779999999
FQV,Volcano Bay Airport,"Volcano Bay, AK",53.81444444,-167.11944440000002
FQW,Fort Glenn Airport,"Fort Glenn, AK",53.36666667,-167.8833333
FQX,Babe Islands Airport,"Babe Islands, AK",55.21027778,-132.1319444
FQY,Kahli Cove Airport,"Kahli Cove, AK",55.92638889,-133.2527778
FRD,Friday Harbor Airport,"Friday Harbor, WA",48.52194444,-123.02444440000001
FRG,Republic,"East Farmingdale, NY",40.72888889,-73.41333333
FRM,Fairmont Municipal,"Fairmont, MN",43.64388889,-94.41555556
FRP,Fresh Water Bay Airport,"Fresh Water Bay, AK",57.85,-134.9833333
FRR,Front Royal-Warren County,"Front Royal, VA",38.9175,-78.25333333
FRY,Eastern Slopes Regional,"Fryeburg, ME",43.99111111,-70.94777778
FSD,Joe Foss Field,"Sioux Falls, SD",43.58194444,-96.74194444
FSI,Henry Post AAF,"Fort Sill, OK",34.64972222,-98.40222222
FSK,Fort Scott Municipal,"Fort Scott, KS",37.79833333,-94.76944444
FSM,Fort Smith Regional,"Fort Smith, AR",35.33666667,-94.3675
FST,Fort Stockton Pecos County,"Ft. Stockton, TX",30.91527778,-102.91277779999999
FTC,Fort Collins Airpark,"Fort Collins, CO",40.58722222,-105.0402778
FTG,Front Range,"Denver, CO",39.78416667,-104.5375
FTK,Godman AAF,"Fort Knox, KY",37.90722222,-85.97166667
FTL,Fortuna Ledge Airport,"Fortuna Ledge, AK",61.86833333,-162.06805559999998
FTW,Fort Worth Meacham International,"Dallas/Fort Worth, TX",32.81972222,-97.3625
FTY,Fulton County Airport-Brown Field,"Atlanta, GA",33.77916667,-84.52138889
FUL,Fullerton Municipal,"Fullerton, CA",33.87194444,-117.97972220000001
FVA,Osprey Lodge Airport,"Osprey Lodge, AK",61.11638889,-155.3113889
FVD,Sonora Municipal,"Sonora, TX",30.58555556,-100.6486111
FVE,Fallbrook Community Airpark,"Fallbrook, CA",33.35416667,-117.25083329999998
FVG,Wickenburg Municipal,"Wickenburg, AZ",33.97055556,-112.795
FVH,Othello Municipal,"Othello, WA",46.79416667,-119.08
FVI,Byerley,"Lake Providence, LA",32.82583333,-91.18777778
FVN,Big Sky Field,"Culbertson, MT",48.15361111,-104.5041667
FVO,Aurora State,"Aurora, OR",45.24722222,-122.77
FVP,Gansner Field,"Quincy, CA",39.94388889,-120.9452778
FVQ,Donlin Creek Mine Airport,"Donlin Creek Mine, AK",62.07194444,-158.2041667
FVR,Three Forks Airport,"Three Forks, MT",45.87861111,-111.56916670000001
FVS,Rexburg-Madison County,"Rexburg, ID",43.83388889,-111.805
FVV,Kern Valley,"Kernville, CA",35.72833333,-118.41972220000001
FVW,Golden Creek Mine Airport,"Golden Creek Mine, AK",65.28333333,-153.0
FVX,Grace Harbor Airport,"Grace Harbor, AK",54.91666667,-132.9166667
FVY,Unuk River Airport,"Unuk River, AK",56.08333333,-131.96666670000002
FVZ,Inigok,"Deadhorse, AK",70.00388889,-153.0775
FWA,Fort Wayne International,"Fort Wayne, IN",40.97833333,-85.19527778
FWH,Fort Worth NAS JRB/Carswell Field,"Fort Worth, TX",32.76916667,-97.44166667
FWL,Farewell Airport,"Farewell, AK",62.50916667,-153.8902778
FWS,Fort Worth Spinks,"Fort Worth, TX",32.56527778,-97.30833333
FXE,Fort Lauderdale Executive,"Fort Lauderdale, FL",26.19722222,-80.17083333
A35,Bullen Point AFS,"Kaktovik, AK",70.17277778,-146.8361111
FXR,Frankfort Municipal,"Clinton, IN",40.27333333,-86.56222222
FXY,Forest City Municipal,"Forest City, IA",43.23472222,-93.62416667
FYU,Fort Yukon Airport,"Fort Yukon, AK",66.5725,-145.2463889
FYV,Drake Field,"Fayetteville, AR",36.005,-94.17
GA1,Barwick Lafayette,"Lafayette, GA",34.68861111,-85.29027778
GA2,West Georgia Regional - O V Gray Field,"Carrollton, GA",33.63166667,-85.15222222
GA3,Newnan Coweta County,"Atlanta, GA",33.31166667,-84.76972222
GAD,Northeast Alabama Regional,"Gadsden, AL",33.97277778,-86.08916667
GAI,Montgomery County Airpark,"Gaithersburg, MD",39.16833333,-77.16611111
GAL,Edward G. Pitka Sr.,"Galena, AK",64.73611111,-156.9375
GAM,Gambell Airport,"Gambell, AK",63.76666667,-171.7327778
GBA,Goose Bay AAF,"Goose Bay, AK",61.395,-149.8416667
GBD,Great Bend Municipal,"Great Bend, KS",38.34416667,-98.85916667
GBG,Galesburg Municipal,"Galesburg, IL",40.93805556,-90.43111111
GBH,Galbraith Lake Airport,"Galbraith Lake, AK",68.47972222,-149.49
GBR,Walter J. Koladza,"Great Barrington, MA",42.18416667,-73.40333333
GCC,Gillette Campbell County,"Gillette, WY",44.34888889,-105.53944440000001
GCK,Garden City Regional,"Garden City, KS",37.9275,-100.7244444
GCN,Grand Canyon National Park,"Grand Canyon, AZ",35.95222222,-112.14694440000001
GCY,Municipal,"Greeneville, TN",36.19138889,-82.81666667
GDC,Donaldson Field,"Greenville, SC",34.75833333,-82.37638889
GDH,Golden Horn Lodge Seaplane Base,"Golden Horn Lodge, AK",59.74694444,-158.87472219999998
GDM,Gardner Municipal,"Gardner, MA",42.55,-72.01611111
GDV,Dawson Community,"Glendive, MT",47.13861111,-104.80722220000001
GDW,Gladwin Zettel Memorial,"Gladwin, MI",43.97055556,-84.475
GED,Delaware Coastal,"Georgetown, DE",38.68777778,-75.35944444
GEG,Spokane International,"Spokane, WA",47.61916667,-117.53527779999999
GEK,Ganes Creek Airport,"Ganes Creek, AK",62.97555556,-156.5133333
GEY,South Big Horn County,"Greybull, WY",44.51805556,-108.08305559999998
GEZ,Shelbyville Municipal,"Shelbyville, IN",39.58305556,-85.80472222
GFA,Malmstrom AFB Heliport,"Great Falls, MT",47.50472222,-111.18722220000001
GFB,Togiak Fish Airport,"Togiak Fish, AK",59.05,-160.2833333
GFK,Grand Forks International,"Grand Forks, ND",47.94722222,-97.17388889
GFL,Floyd Bennett Memorial,"Glens Falls, NY",43.34111111,-73.61027778
GGE,Georgetown County,"Georgetown, SC",33.31138889,-79.32027778
GGG,East Texas Regional,"Longview, TX",32.38388889,-94.71138889
GGW,Wokal Field/Glasgow International,"Glasgow, MT",48.2125,-106.6147222
GJT,Grand Junction Regional,"Grand Junction, CO",39.1225,-108.5266667
GKN,Gulkana Airport,"Gulkana, AK",62.155,-145.4544444
GLD,Renner Field,"Goodland, KS",39.37055556,-101.69888890000001
GLH,Greenville Mid Delta,"Greenville, MS",33.48277778,-90.98555556
GLQ,Glennallen Airport,"Glennallen, AK",62.11861111,-145.55
GLR,Gaylord Regional,"Gaylord, MI",45.01305556,-84.70333333
GLS,Scholes International at Galveston,"Galveston, TX",29.26527778,-94.86055556
GLV,Golovin Airport,"Golovin, AK",64.55055556,-163.00722219999997
GLW,Glasgow Municipal,"Glasgow, KY",37.03166667,-85.95361111
GMT,Granite Mountain AS,"Granite Mountain, AK",65.40222222,-161.2813889
GMU,Greenville Downtown,"Greenville, SC",34.84805556,-82.35
GNU,Goodnews,"Goodnews Bay, AK",59.11777778,-161.5736111
GNV,Gainesville Regional,"Gainesville, FL",29.69,-82.27166667
GOL,Gold Beach Municipal,"Gold Beach, OR",42.41527778,-124.425
GON,Groton-New London,"New London/Groton, CT",41.33,-72.04527778
GPM,Grand Prairie Municipal,"Grand Prairie, TX",32.69888889,-97.04694444
GPT,Gulfport-Biloxi International,"Gulfport/Biloxi, MS",30.40722222,-89.07
GPZ,Grand Rapids/Itasca County-Gordon Newstrom Field,"Grand Rapids, MN",47.21,-93.51
GQQ,Horning,"Galion, OH",40.73611111,-82.75277778
GRB,Green Bay Austin Straubel International,"Green Bay, WI",44.48472222,-88.12972222
GRD,Greenwood County,"Greenwood, SC",34.24861111,-82.15916667
GRF,Gray AAF,"Tacoma, WA",47.07916667,-122.58083329999998
GRI,Central Nebraska Regional,"Grand Island, NE",40.9675,-98.30972222
GRK,Robert Gray AAF,"Killeen, TX",31.06722222,-97.82888889
GRR,Gerald R. Ford International,"Grand Rapids, MI",42.88083333,-85.52277778
GSB,Seymour Johnson AFB,"Goldsboro, NC",35.33944444,-77.96055556
GSH,Goshen Municipal,"Goshen, IN",41.52638889,-85.79416667
GSO,Piedmont Triad International,"Greensboro/High Point, NC",36.10138889,-79.94111111
GSP,Greenville-Spartanburg International,"Greer, SC",34.89555556,-82.21888889
GST,Gustavus Airport,"Gustavus, AK",58.42527778,-135.7075
GSW,Greater Southwest International,"Dallas/Fort Worth, TX",32.8275,-97.04527778
GTF,Great Falls International,"Great Falls, MT",47.48222222,-111.3702778
GTR,Golden Triangle Regional,"Columbus, MS",33.44833333,-88.59138889
GTU,Georgetown Municipal,"Georgetown, TX",30.67888889,-97.67944444
GUC,Gunnison-Crested Butte Regional,"Gunnison, CO",38.53444444,-106.93166670000001
GUM,Guam International,"Guam, TT",13.48388889,144.7972222
GUP,Gallup Municipal,"Gallup, NM",35.51111111,-108.78944440000001
GUS,Grissom ARB,"Peru, IN",40.64805556,-86.15222222
GUY,Guymon Municipal,"Guymon, OK",36.685,-101.5077778
GVE,Gordonsville Municipal,"Gordonville, VA",38.15611111,-78.16583333
GVL,Lee Gilmer Memorial,"Gainesville, GA",34.2725,-83.83027778
GVQ,Genesee County,"Batavia, NY",43.03166667,-78.16972222
GVT,Majors,"Greenville, TX",33.06777778,-96.06527778
GVW,Richards/Gebaur AFB,"Grandview, MO",38.85083333,-94.55833333
GWO,Greenwood/Leflore,"Greenwood, MS",33.49333333,-90.08666667
GWR,Gwinner-Roger Melroe Field,"Gwinner, ND",46.21833333,-97.64333333
GWS,Glenwood Springs Municipal,"Glenwood Springs, CO",39.50611111,-107.30916670000002
GYR,Phoenix Goodyear,"Goodyear, AZ",33.42333333,-112.37527779999999
GYY,Gary/Chicago International,"Gary, IN",41.61722222,-87.41444444
HAB,Marion County,"Hamilton, AL",34.12916667,-87.99444444
HAE,Havasupai Airport,"Havasupai, AZ",36.21666667,-112.66666670000001
HAF,Half Moon Bay Airport,"Half Moon Bay, CA",37.51333333,-122.5011111
HAO,Butler County Regional Hogan Field,"Hamilton, OH",39.36388889,-84.52194444
HAR,Capital City,"Harrisburg, PA",40.21722222,-76.85138889
HAY,Haycock Airport,"Haycock, AK",65.20277778,-161.15277780000002
HBC,Hanus Bay Airport,"Hanus Bay, AK",57.41666667,-135.0333333
HBG,Hattiesburg Bobby L. Chain Municipal,"Hattiesburg, MS",31.265,-89.25277778
HBH,Hobart Bay Airport,"Hobart Bay, AK",57.4,-133.46666670000002
HBV,Jim Hogg County,"Hebbronville, TX",27.34944444,-98.73694444
HBY,Hood Bay Airport,"Hood Bay, AK",57.38194444,-134.39527780000003
HCA,Howard County,"Big Spring, TX",32.30361111,-101.43388890000001
HCB,Shoal Cove Airport,"Shoal Cove, AK",55.45,-131.28333329999998
HCR,Holy Cross Airport,"Holy Cross, AK",62.18833333,-159.775
HDA,Hidden Falls Airport,"Hidden Falls, AK",57.21666667,-134.8833333
HDH,Dillingham,"Mokuleia, HI",21.57944444,-158.19722219999997
HDN,Yampa Valley,"Hayden, CO",40.48111111,-107.2177778
HED,Herendeen Bay,"Herendeen, AK",55.80138889,-160.8991667
HES,Hermiston Municipal,"Hermiston, OR",45.82833333,-119.25916670000001
HEZ,Hardy-Anders Field Natchez-Adams County,"Natchez, MS",31.61361111,-91.29722222
HFD,Hartford Brainard,"Hartford, CT",41.73666667,-72.64944444
HFF,Mackall AAF,"Hoffman, NC",35.03666667,-79.4975
HGR,Hagerstown Regional-Richard A. Henson Field,"Hagerstown, MD",39.70861111,-77.72638889
HGZ,Hogatza Airport,"Hogatza, AK",66.19166667,-155.66888889999998
HHH,Hilton Head Airport,"Hilton Head, SC",32.22444444,-80.6975
HHR,Jack Northrop Field/Hawthorne Municipal,"Hawthorne, CA",33.92277778,-118.3352778
KS3,Hiawatha Municipal,"Hiawatha, KS",39.87916667,-95.52527778
HIB,Range Regional,"Hibbing, MN",47.38666667,-92.83888889
HIE,Mount Washington Regional,"Whitefield, NH",44.3675,-71.54583333
HIF,Hill AFB,"Ogden, UT",41.12388889,-111.97305559999998
HII,Lake Havasu City Airport,"Lake Havasu City, AZ",34.57111111,-114.35833329999998
HIK,Daniel K Inouye International,"Honolulu, HI",21.31777778,-157.9202778
HIO,Portland Hillsboro,"Hillsboro, OR",45.54222222,-122.95083329999999
HKA,Blytheville Municipal,"Blytheville, AR",35.94055556,-89.83083333
HKB,Healy River,"Healy, AK",63.8675,-148.9688889
HKP,Kaanapali Airport,"Kaanapali, HI",20.94583333,-156.69305559999998
HKS,Hawkins Field,"Jackson, MS",32.33472222,-90.2225
HKY,Hickory Regional,"Hickory, NC",35.74111111,-81.38944444
HLG,Wheeling Ohio County,"Wheeling, WV",40.175,-80.64638889
HLI,Hollister Municipal,"Hollister, CA",36.89333333,-121.41027779999999
HLM,Park Township,"Holland, MI",42.79583333,-86.16194444
HLN,Helena Regional,"Helena, MT",46.60666667,-111.98333329999998
HLO,Holbrook Municipal,"Holbrook, AZ",34.93861111,-110.14027779999999
HMN,Holloman AFB,"Alamogordo, NM",32.85194444,-106.10916670000002
HMS,Homeshore Airport,"Homeshore, AK",58.29444444,-135.34722219999998
HMT,Hemet-Ryan,"Hemet, CA",33.73388889,-117.0225
HNC,Billy Mitchell,"Hatteras, NC",35.23277778,-75.61777778
HNH,Hoonah Airport,"Hoonah, AK",58.09611111,-135.4088889
HNL,Daniel K Inouye International,"Honolulu, HI",21.31777778,-157.9202778
HNM,Hana Airport,"Hana, HI",20.79555556,-156.0144444
HNS,Haines Airport,"Haines, AK",59.24388889,-135.5236111
HOB,Lea County Regional,"Hobbs, NM",32.6875,-103.21722220000001
HOL,Holikachuk Airport,"Holikachuk, AK",62.91055556,-159.52777780000002
HOM,Homer Airport,"Homer, AK",59.645,-151.4858333
HON,Huron Regional,"Huron, SD",44.38527778,-98.22861111
HOP,Campbell AAF,"Hopkinsville, KY",36.66861111,-87.49611111
HOT,Memorial Field,"Hot Springs, AR",34.47805556,-93.09611111
HOU,William P Hobby,"Houston, TX",29.64555556,-95.27888889
HPB,Hooper Bay Airport,"Hooper Bay, AK",61.52388889,-166.1466667
HPN,Westchester County,"White Plains, NY",41.06694444,-73.7075
HPT,Hampton Municipal,"Hampton, IA",42.72361111,-93.22638889
HPV,Princeville,"Hanalei, HI",22.20916667,-159.44555559999998
HQM,Bowerman,"Hoquiam, WA",46.97111111,-123.93666670000002
HRL,Valley International,"Harlingen/San Benito, TX",26.22722222,-97.65527778
HRO,Boone County,"Harrison, AR",36.26138889,-93.15472222
HSH,Henderson Executive,"Las Vegas, NV",35.97277778,-115.1344444
HSI,Hastings Municipal,"Hastings, NE",40.60527778,-98.42777778
HSL,Huslia Airport,"Huslia, AK",65.69777778,-156.3513889
HSP,Ingalls Field,"Hot Springs, VA",37.95138889,-79.83388889
HST,Homestead ARB,"Homestead, FL",25.48861111,-80.38361111
HSV,Huntsville International-Carl T Jones Field,"Huntsville, AL",34.63722222,-86.775
HTH,Hawthorne Industrial,"Hawthorne, NV",38.545,-118.6325
HTO,East Hampton Airport,"East Hampton, NY",40.95944444,-72.25166667
HTS,Tri-State/Milton J. Ferguson Field,"Ashland, WV",38.36861111,-82.56027778
HUA,Redstone AAF,"Huntsville, AL",34.67861111,-86.68472222
HUC,Dr Hermenegildo Ortiz Quinones,"Humacao, PR",18.13805556,-65.80083333
HUF,Terre Haute Regional,"Terre Haute, IN",39.45055556,-87.30694444
HUL,Houlton International,"Houlton, ME",46.12472222,-67.79222222
HUM,Houma Terrebonne,"Houma, LA",29.56638889,-90.66055556
HUS,Hughes Airport,"Hughes, AK",66.03916667,-154.2647222
HUT,Hutchinson Regional,"Hutchinson, KS",38.06611111,-97.86055556
HVC,Hopkinsville-Christian County,"Hopkinsville, KY",36.85694444,-87.455
HVN,Tweed New Haven,"New Haven, CT",41.26388889,-72.88694444
HVR,Havre City-County,"Havre, MT",48.54305556,-109.76222220000001
HVS,Hartsville Regional,"Hartsville, SC",34.40305556,-80.11916667
HWD,Hayward Executive,"Hayward, CA",37.65888889,-122.12166670000002
HWI,Hawk Inlet Airport,"Hawk Inlet, AK",58.13333333,-134.75
HYA,Barnstable Municipal-Boardman/Polando Field,"Hyannis, MA",41.66944444,-70.28027778
HYG,Hydaburg Seaplane Base,"Hydaburg, AK",55.20666667,-132.8266667
HYL,Hollis Seaplane Base,"Hollis, AK",55.48194444,-132.64444440000003
HYR,Sawyer County,"Hayward, WI",46.02527778,-91.44305556
HYS,Hays Regional,"Hays, KS",38.84222222,-99.27305556
HZL,Hazleton Regional,"Hazleton, PA",40.98666667,-75.995
IA1,Shenandoah Municipal,"Shenandoah, IA",40.75166667,-95.41361111
IA2,Webster City Municipal,"Webster City, IA",42.43638889,-93.86888889
IA3,Red Oak Municipal,"Red Oak, IA",41.01083333,-95.25888889
IAB,McConnell AFB,"Wichita, KS",37.62305556,-97.2675
IAD,Washington Dulles International,"Washington, DC",38.9475,-77.46
IAG,Niagara Falls International,"Niagara Falls, NY",43.1075,-78.94583333
IAH,George Bush Intercontinental/Houston,"Houston, TX",29.98444444,-95.34138889
IAN,Bob Baker Memorial,"Kiana, AK",66.97583333,-160.4366667
ICT,Wichita Dwight D Eisenhower National,"Wichita, KS",37.65,-97.43305556
ICY,Icy Bay Airport,"Icy Bay, AK",59.96888889,-141.66166669999998
IDA,Idaho Falls Regional,"Idaho Falls, ID",43.51361111,-112.07083329999999
IDI,Indiana County,"Indiana, PA",40.63111111,-79.10166667
IDP,Independence Municipal,"Independence, KS",37.15805556,-95.77888889
IGG,Igiugig Airport,"Igiugig, AK",59.32416667,-155.9016667
IGM,Kingman Airport,"Kingman, AZ",35.25944444,-113.93805559999998
IGX,Horace Williams,"Chapel Hill, NC",35.935,-79.06583333
II1,Rantoul National Aviation Center,"Rantoul, IL",40.29361111,-88.1425
LOT,Lewis University,"Chicago/Romeoville, IL",41.60805556,-88.09611111
II3,De Kalb Taylor Municipal,"De Kalb, IL",41.93388889,-88.70555556
II4,Logan County,"Lincoln, IL",40.15861111,-89.335
IJX,Jacksonville Municipal,"Jacksonville, IL",39.77472222,-90.23833333
IKB,Wilkes County,"Wilkesboro, NC",36.22361111,-81.09861111
IKK,Greater Kankakee,"Kankakee, IL",41.07138889,-87.84638889
IKO,Nikolski AS,"Nikolski, AK",52.94166667,-168.84916669999998
IKV,Ankeny Regional,"Ankeny, IA",41.69138889,-93.56638889
ILE,Skylark Field,"Killeen, TX",31.08583333,-97.68638889
ILG,New Castle,"Wilmington, DE",39.67861111,-75.60666667
ILI,Iliamna Airport,"Iliamna, AK",59.75555556,-154.9177778
ILL,Willmar Municipal,"Willmar, MN",45.11694444,-95.12944444
ILM,Wilmington International,"Wilmington, NC",34.27111111,-77.90277778
ILN,Wilmington Air Park,"Wilmington, OH",39.42805556,-83.79222222
IML,Imperial Municipal,"Imperial, NE",40.51027778,-101.6202778
IMM,Immokalee Regional,"Immokalee, FL",26.43388889,-81.40055556
IMT,Ford,"Iron Mountain/Kingsfd, MI",45.81833333,-88.11444444
IN1,De Kalb County,"Auburn, IN",41.30722222,-85.06444444
IN2,Indianapolis Executive,"Indianapolis, IN",40.03055556,-86.25138889
IND,Indianapolis International,"Indianapolis, IN",39.71722222,-86.29472222
INL,Falls International Einarson Field,"International Falls, MN",48.56555556,-93.40222222
INS,Creech AFB,"Indian Springs, NV",36.58722222,-115.67333329999998
INT,Smith Reynolds,"Winston-Salem, NC",36.13361111,-80.22194444
INW,Winslow-Lindbergh Regional,"Winslow, AZ",35.02166667,-110.72305559999998
IOW,Iowa City Municipal,"Iowa City, IA",41.63972222,-91.54805556
IPL,Imperial County,"El Centro, CA",32.83416667,-115.5788889
IPT,Williamsport Regional,"Williamsport, PA",41.24166667,-76.92194444
IRC,Circle City,"Circle, AK",65.82805556,-144.0761111
IRK,Kirksville Regional,"Kirksville, MO",40.09333333,-92.545
IRS,Sturgis Airport,"Sturgis, MI",41.8,-85.41666667
IRV,Roy E. Ray,"Bayou La Batre, AL",30.45527778,-88.21111111
ISL,Isabel Pass Airport,"Isabel Pass, AK",63.5,-145.0333333
ISM,Kissimmee Gateway,"Orlando, FL",28.28972222,-81.43694444
ISN,Sloulin Field International,"Williston, ND",48.17805556,-103.6422222
ISO,Kinston Regional Jetport at Stallings Field,"Kinston, NC",35.33138889,-77.60888889
ISP,Long Island MacArthur,"Islip, NY",40.79527778,-73.10027778
ISQ,Schoolcraft County,"Manistique, MI",45.97444444,-86.17166667
ISS,Wiscasset Airport,"Wiscasset, ME",43.96138889,-69.7125
ISW,Alexander Field South Wood County,"Wisconsin Rapids, WI",44.36055556,-89.83805556
ITH,Ithaca Tompkins Regional,"Ithaca/Cortland, NY",42.49138889,-76.45861111
ITO,Hilo International,"Hilo, HI",19.72027778,-155.0483333
IWD,Gogebic-Iron County,"Ironwood, MI",46.5275,-90.13138889
IWS,West Houston,"Houston, TX",29.81805556,-95.6725
IYK,Inyokern Airport,"Inyokern, CA",35.65861111,-117.82944440000001
JAC,Jackson Hole,"Jackson, WY",43.60722222,-110.73777779999999
JAJ,Perimeter Mall Helipad,"Atlanta, GA",33.765,-84.41777778
JAN,Jackson Medgar Wiley Evers International,"Jackson/Vicksburg, MS",32.31111111,-90.07583333
JAO,Beaver Ruin,"Atlanta, GA",33.93333333,-84.15
JAX,Jacksonville International,"Jacksonville, FL",30.49416667,-81.68777778
JBC,Boston City Heliport,"Boston, MA",42.33333333,-71.25
JBK,Berkeley Municipal Heliport,"Oakland, CA",37.86666667,-122.3
JBP,Commerce Business Park Heliport,"Commerce, CA",33.98666667,-118.16055559999998
JBR,Jonesboro Municipal,"Jonesboro, AR",35.83166667,-90.64638889
JCC,China Basin Heliport,"San Francisco, CA",37.8,-122.46666670000002
JCE,Oakland Convention Center Heliport,"Oakland, CA",37.80555556,-122.275
JCI,New Century Aircenter,"Olathe, KS",38.83083333,-94.89027778
JDA,Grant County Regional/Ogilvie Field,"John Day, OR",44.40277778,-118.9677778
JDB,Downtown Heliport,"Dallas/Fort Worth, TX",32.76666667,-97.31666667
JDG,Edgewater Inn Helipad Sea Wash,"Seattle, WA",47.60083333,-122.3347222
JDM,Miami Downtown Heliport,"Miami, FL",25.76666667,-80.18333333
JDT,Minneapolis Heliport,"Minneapolis, MN",44.98277778,-93.26833333
JDX,Houston Central Business District Heliport,"Houston, TX",29.76666667,-95.33333333
JEF,Jefferson City Memorial,"Jefferson City, MO",38.59111111,-92.15611111
JFB,Seattle 1st National.Bank Helipad,"Seattle, WA",47.60694444,-122.3325
JFK,John F. Kennedy International,"New York, NY",40.64,-73.77861111
JFN,Northeast Ohio Regional,"Jefferson, OH",41.77777778,-80.69666667
JGC,Grand Canyon Heliport,"Grand Canyon, AZ",35.96666667,-112.13333329999999
JGG,Williamsburg-Jamestown,"Williamsburg, VA",37.23916667,-76.71611111
JGL,Galleria,"Atlanta, GA",33.58333333,-84.46666667
JGP,Greenway Plaza Heliport,"Houston, TX",29.73416667,-95.43416667
JGQ,Transco Tower Galleria Heliport,"Houston, TX",29.73666667,-95.45916667
JHC,Island Heliport,"Garden City, NY",40.74444444,-73.60833333
JHM,Kapalua Airport,"Kapalua, HI",20.96305556,-156.6730556
JHW,Chautauqua County/Jamestown,"Jamestown, NY",42.15333333,-79.25805556
JHY,Cambridge Airport,"Cambridge, MA",42.28333333,-71.13333333
JID,Civic Financial Center Heliport,"City of Industry, CA",34.02444444,-117.95916670000001
JKV,Cherokee County,"Jacksonville, TX",31.86944444,-95.2175
JLA,Quartz Creek,"Cooper Lodge, AK",60.48416667,-149.72277780000002
JLN,Joplin Regional,"Joplin, MO",37.15305556,-94.49888889
JMA,Astrodome,"Houston, TX",29.68333333,-95.4
JMC,Marin County Heliport,"San Francisco, CA",37.87861111,-122.50972220000001
JMN,Downtown Heliport,"Mankato, MN",44.16388889,-94.00416667
JMS,Jamestown Regional,"Jamestown, ND",46.92972222,-98.67805556
JNP,Newport Beach Airport,"Newport Beach, CA",33.61388889,-117.88972220000001
JNU,Juneau International,"Juneau, AK",58.35472222,-134.5783333
JOC,Centerport Heliport,"Santa Ana, CA",33.66666667,-117.86666670000001
JON,Johnston Atoll,"Johnston Island, TT",16.73055556,-169.53527780000002
JOR,Orange County Heliport,"Orange, CA",33.84805556,-117.85
JPB,Pan Am Building Heliport,"New York, NY",40.75333333,-73.975
JPT,Park Ten Helipad,"Houston, TX",29.50861111,-95.05027778
USA,CONCORD REGIONAL,"CONCORD, NC",35.38777778,-80.70916667
JRA,West 30th Street Heliport,"New York, NY",40.75444444,-74.0075
JRB,Downtown Manhattan/Wall Street Heliport,"New York, NY",40.70111111,-74.00916667
JRC,Appache Heliport,"Rochester, MN",44.00138889,-92.48055556
JRE,East 60th Street Heliport,"New York, NY",40.8,-73.96666667
JRF,Kalaeloa,"Kapolei, HI",21.30722222,-158.0702778
JRV,Jose Aponte de la Torre,"Ceiba, PR",18.245,-65.64333333
JSE,Juneau Seaplane Base,"Juneau, AK",58.30166667,-134.42444440000003
JSK,Crossroads Heliport,"St. Cloud, MN",45.55,-94.2
JST,John Murtha Johnstown-Cambria County,"Johnstown, PA",40.31555556,-78.83472222
JVL,Southern Wisconsin Regional,"Beloit/Janesville, WI",42.62027778,-89.04166667
JWH,Westchase Heliport,"Houston, TX",29.73638889,-95.5475
TN8,John C Tune,"Nashville, TN",36.18305556,-86.88638889
JXN,Jackson County-Reynolds Field,"Jackson, MI",42.26055556,-84.46222222
JYP,Olympic Hotel Helipad Sea Wash,"Seattle, WA",47.60416667,-122.33333329999999
JZA,James H Easom Field,"Newton, MS",32.31194444,-89.13555556
JZB,Orange Municipal,"Orange, MA",42.57,-72.28861111
JZC,Stanley Municipal,"Stanley, ND",48.30083333,-102.40638890000001
JZE,Trading Bay Production,"Trading Bay, AK",60.81555556,-151.7988889
JZG,Chamberlain Municipal,"Chamberlain, SD",43.76611111,-99.32111111
JZI,Portland Municipal,"Portland, TN",36.59277778,-86.47694444
JZJ,Sky Harbor,"Duluth, MN",46.72194444,-92.04333333
JZK,Cloquet Carlton County,"Cloquet, MN",46.70111111,-92.50361111
JZL,San Clemente Island Nalf,"San Clemente Island, CA",33.02277778,-118.58861110000001
JZM,Hog River Airport,"Hog River, AK",66.17611111,-155.68472219999998
JZN,Quincy Municipal,"Quincy, WA",47.21166667,-119.83972220000001
JZO,American Falls Airport,"American Falls, ID",42.79722222,-112.8252778
JZP,Prospect State,"Prospect, OR",42.7425,-122.48888889999999
JZQ,Brooksville Tampa Bay Regional,"Brooksville, FL",28.47361111,-82.45555556
JZR,Laurel Municipal,"Laurel, MT",45.70444444,-108.7594444
JZT,Arlington Municipal,"Arlington, TX",32.66388889,-97.09416667
JZU,William H. Morse State,"Bennington, VT",42.89111111,-73.24611111
JZV,North Little Rock Municipal,"Little Rock, AR",34.83305556,-92.25416667
JZW,Evergreen Regional Middleton Field,"Evergreen, AL",31.415,-87.04333333
JZX,Angwin-Parrett Field,"Angwin, CA",38.58,-122.43555559999999
JZY,Idaho County,"Grangeville, ID",45.94277778,-116.12305559999999
K01,Russellville-Logan County,"Russellville, KY",36.79972222,-86.81083333
KAE,Kake Seaplane Base,"Kake, AK",56.97333333,-133.9438889
KAL,Kaltag Airport,"Kaltag, AK",64.31888889,-158.7413889
KBC,Birch Creek Airport,"Birch Creek, AK",66.27444444,-145.81805559999998
KBE,Bell Island Hot Springs Seaplane Base,"Bell Island, AK",55.92944444,-131.57
KBK,Klag Bay Airport,"Klag Bay, AK",57.64472222,-136.09305559999999
KBW,Chignik Bay,"Chignik, AK",56.28805556,-158.3833333
KCC,Coffman Cove Seaplane Base,"Coffman Cove, AK",56.03333333,-132.9166667
KCG,Chignik Bay Airport,"Chignik Bay, AK",56.31138889,-158.3733333
KCK,Fairfax Municipal,"Kansas City, KS",39.15,-94.6
KCL,Chignik Lagoon Airport,"Chignik Lagoon, AK",56.31083333,-158.5344444
KCN,Chernofski Harbor,"Chernofski, AK",53.4,-167.55
KCQ,Chignik Lake,"Chignik, AK",56.25555556,-158.77777780000002
KCR,Colorado Creek Airport,"Colorado Creek, AK",63.57111111,-156.00527780000002
KDK,Kodiak Municipal,"Kodiak, AK",57.80583333,-152.3738889
KEB,Nanwalek Airport,"Nanwalek, AK",59.35222222,-151.9252778
KEH,Kenmore Air Harbor,"Kenmore, WA",47.75472222,-122.25916670000001
KEK,Ekwok Airport,"Ekwok, AK",59.35694444,-157.4711111
OCA,Ocean Reef Club,"Key Largo, FL",25.32444444,-80.27583333
KFP,False Pass Airport,"False Pass, AK",54.84777778,-163.40722219999998
KGK,Koliganek Airport,"Koliganek, AK",59.72666667,-157.2602778
KGX,Grayling Airport,"Grayling, AK",62.89222222,-160.0663889
KGZ,Glacier Creek Airport,"Glacier Creek, AK",61.455,-142.3808333
KIB,Ivanof Bay Seaplane Base,"Ivanof Bay, AK",55.9,-159.4833333
KKA,Koyuk Alfred Adams,"Koyuk, AK",64.93944444,-161.1541667
KKB,Kitoi Bay Airport,"Kitoi Bay, AK",58.19166667,-152.35
KKH,Kongiganak Airport,"Kongiganak, AK",59.96166667,-162.88055559999998
KKI,Akiachak Airport,"Akiachak, AK",60.91388889,-161.49333330000002
KKK,Kalakaket Creek AS,"Kalakaket, AK",64.42444444,-156.8433333
KKL,Karluk Lake Seaplane Base,"Karluk Lake, AK",57.36777778,-154.02527780000003
KKU,Ekuk Airport,"Ekuk, AK",58.81111111,-158.5588889
KLG,Kalskag Airport,"Kalskag, AK",61.53583333,-160.34555559999998
KLL,Levelock Airport,"Levelock, AK",59.12694444,-156.86
KLN,Larsen Bay Airport,"Larsen Bay, AK",57.535,-153.97666669999998
KLP,Kelp Bay Airport,"Kelp Bay, AK",57.55,-134.8666667
KLS,Southwest Washington Regional,"Kelso, WA",46.11805556,-122.89833329999999
KLW,Klawock Airport,"Klawock, AK",55.57916667,-133.0761111
KMO,Manokatak Seaplane Base,"Manokotak, AK",58.98166667,-159.0566667
KMY,Moser Bay Airport,"Moser Bay, AK",57.02638889,-154.14361110000002
KNB,Kanab Municipal,"Kanab, UT",37.01055556,-112.5313889
KNK,Kokhanok Airport,"Kokhanok, AK",59.43333333,-154.8025
KNT,Kennett Memorial,"Kennett, MO",36.22583333,-90.03666667
KNW,New Stuyahok Airport,"New Stuyahok, AK",59.45166667,-157.3730556
KOA,Ellison Onizuka Kona International at Keahole,"Kona, HI",19.73888889,-156.0455556
KOT,Kotlik Airport,"Kotlik, AK",63.03055556,-163.53277780000002
KOY,Olga Bay Seaplane Base,"Olga Bay, AK",57.16222222,-154.2275
KOZ,Ouzinkie Airport,"Ouzinkie, AK",57.94222222,-152.465
KPB,Point Baker Airport,"Point Baker, AK",56.35,-133.61666670000002
KPC,Port Clarence CGS,"Port Clarence, AK",65.25333333,-166.8575
KPH,Pauloff Harbor Airport,"Pauloff Harbor, AK",54.45,-162.68333330000002
KPK,Parks Seaplane Base,"Parks, AK",57.43361111,-153.9
KPM,Napamute Airport,"Napamute, AK",61.53138889,-158.6408333
KPN,Kipnuk Airport,"Kipnuk, AK",59.93166667,-164.0280556
KPR,Port Williams Airport,"Port Williams, AK",58.43333333,-152.58333330000002
KPV,Perryville Airport,"Perryville, AK",55.90666667,-159.1608333
KPY,Port Bailey Airport,"Port Bailey, AK",57.93333333,-153.0333333
KQA,Akutan Airport,"Akutan, AK",54.13333333,-165.7833333
KRM,Kasitsna,"Kasitsna Bay, AK",59.46972222,-151.5711111
KS2,Coffey County,"Burlington, KS",38.3025,-95.725
KSM,St. Mary's Airport,"St. Mary's, AK",62.06083333,-163.30194440000002
KSR,Federal No.1,"Sandy River, AK",56.24444444,-160.3863889
KTB,Thorne Bay Seaplane Base,"Thorne Bay, AK",55.68833333,-132.535
KTN,Ketchikan International,"Ketchikan, AK",55.35416667,-131.7111111
KTS,Brevig Mission Airport,"Brevig Mission, AK",65.33138889,-166.4658333
KUK,Kasigluk Airport,"Kasigluk, AK",60.87333333,-162.52444440000002
KUW,Kugururok River Airport,"Kugururok River, AK",68.30694444,-161.4
KVC,King Cove Airport,"King Cove, AK",55.11638889,-162.2661111
KVL,Kivalina Airport,"Kivalina, AK",67.73611111,-164.5636111
KWF,Waterfall Seaplane Base,"Waterfall, AK",55.29722222,-133.2405556
KWK,Kwigillingok Airport,"Kwigillingok, AK",59.87555556,-163.16805559999997
KWN,Quinhagak Airport,"Quinhagak, AK",59.755,-161.84527780000002
KWP,West Point Village,"West Point, AK",57.76694444,-153.55
KWT,Kwethluk Airport,"Kwethluk, AK",60.79027778,-161.4436111
KXA,Kasaan Seaplane Base,"Kasaan, AK",55.53777778,-132.3958333
KY1,Stuart Powell Field,"Danville, KY",37.5775,-84.76944444
KY2,Sturgis Municipal,"Sturgis, KY",37.54166667,-87.95444444
KY3,Mount Sterling - Montgomery County,"Mount Sterling, KY",38.05805556,-83.97944444
KY4,Henderson City - County,"Henderson, KY",37.80777778,-87.68583333
KY5,Madisonville Regional,"Madisonville, KY",37.35583333,-87.39833333
KYC,Yankee Creek 2,"Yankee Creek, AK",63.00194444,-156.3672222
KYK,Karluk Airport,"Karluk, AK",57.56611111,-154.4538889
KYU,Koyukuk Airport,"Koyukuk, AK",64.87583333,-157.73055559999997
KZB,Zachar Bay Airport,"Zachar Bay, AK",57.55,-153.75
KZH,Kizhuyak Airport,"Kizhuyak, AK",57.58305556,-153.15
LAA,Lamar Municipal,"Lamar, CO",38.06972222,-102.68861109999999
LAF,Purdue University,"Lafayette, IN",40.41222222,-86.93694444
LAL,Lakeland Linder Regional,"Lakeland, FL",27.98888889,-82.01861111
LAM,Los Alamos Airport,"Los Alamos, NM",35.87972222,-106.2686111
LAN,Capital Region International,"Lansing, MI",42.77861111,-84.58611111
LAR,Laramie Regional,"Laramie, WY",41.31194444,-105.675
LAS,McCarran International,"Las Vegas, NV",36.08,-115.15222220000001
LAW,Lawton-Fort Sill Regional,"Lawton/Fort Sill, OK",34.56777778,-98.41666667
LAX,Los Angeles International,"Los Angeles, CA",33.9425,-118.40805559999998
LBB,Lubbock Preston Smith International,"Lubbock, TX",33.66361111,-101.82055559999999
LBE,Arnold Palmer Regional,"Latrobe, PA",40.27305556,-79.41027778
LBF,North Platte Regional Airport Lee Bird Field,"North Platte, NE",41.12611111,-100.6836111
LBL,Liberal Mid-America Regional,"Liberal, KS",37.04388889,-100.96
LBT,Lumberton Regional,"Lumberton, NC",34.60972222,-79.05944444
LCH,Lake Charles Regional,"Lake Charles, LA",30.12611111,-93.22333333
LCI,Laconia Municipal,"Laconia, NH",43.57305556,-71.41777778
LCK,Rickenbacker International,"Columbus, OH",39.81388889,-82.92777778
LDJ,Linden Airport,"Linden, NJ",40.6175,-74.24444444
LDM,Mason County,"Ludington, MI",43.9625,-86.40805556
LEB,Lebanon Municipal,"Lebanon-Hanover, NH",43.62611111,-72.30416667
LEE,Leesburg International,"Leesburg, FL",28.82277778,-81.80833333
LEW,Auburn Lewiston Municipal,"Lewiston/Auburn, ME",44.04833333,-70.28361111
LEX,Blue Grass,"Lexington, KY",38.03666667,-84.60861111
LFI,Langley AFB,"Newport News/Hampton, VA",37.08277778,-76.36055556
LFK,Angelina County,"Lufkin, TX",31.23416667,-94.75
LFT,Lafayette Regional Paul Fournet Field,"Lafayette, LA",30.205,-91.98777778
LGA,LaGuardia,"New York, NY",40.77722222,-73.8725
LGB,Long Beach Airport,"Long Beach, CA",33.81777778,-118.1513889
LGC,LaGrange-Callaway,"LaGrange, GA",33.00888889,-85.0725
LGD,La Grande/Union County,"La Grande, OR",45.28944444,-118.0061111
LGM,Longmont Municipal,"Longmont, CO",40.16166667,-105.16138889999999
LGU,Logan Cache,"Logan, UT",41.79138889,-111.85166670000001
LHB,Lost Harbor Airport,"Lost Harbor, AK",54.22611111,-165.61111110000002
LHQ,Fairfield County,"Lancaster, OH",39.75555556,-82.65722222
LHU,Lake Havasu City Airport,"Lake Havasu City, AZ",34.45833333,-114.3611111
LHV,William T. Piper Memorial,"Lock Haven, PA",41.13583333,-77.42222222
LHX,La Junta Municipal,"La Junta, CO",38.05,-103.50972220000001
LIC,Limon Municipal,"Limon, CO",39.27472222,-103.6658333
LIH,Lihue Airport,"Lihue, HI",21.97611111,-159.3388889
LIJ,Long Island Airport,"Long Island, AK",54.9,-132.75
LIT,Bill and Hillary Clinton Nat Adams Field,"Little Rock, AR",34.72944444,-92.22472222
LIV,Livengood Airport,"Livengood, AK",65.53111111,-148.5411111
LIY,Wright AAF/Midcoast Regional,"Hinesville, GA",31.88833333,-81.56166667
LIZ,Loring International,"Limestone, ME",46.95055556,-67.88583333
LJN,Brazoria County,"Lake Jackson, TX",29.03833333,-95.45694444
LJY,Floyd W Jones Lebanon,"Lebanon, MO",37.64833333,-92.6525
LKE,Lake Union Terminal,"Seattle, WA",47.62888889,-122.33861110000001
LKK,Kulik Lake Airport,"Kulik Lake, AK",58.965,-155.09555559999998
LKP,Lake Placid Airport,"Lake Placid, NY",44.26444444,-73.96194444
LKV,Lake County,"Lakeview, OR",42.16111111,-120.39916670000001
LLY,South Jersey Regional,"Mount Holly, NJ",39.94277778,-74.84583333
LMA,Lake Minchumina Airport,"Lake Minchumina, AK",63.88583333,-152.30194440000002
LMS,Louisville Winston County,"Louisville, MS",33.14611111,-89.0625
LMT,Crater Lake Klamath Regional,"Klamath Falls, OR",42.15611111,-121.73305559999999
LND,Hunt Field,"Lander, WY",42.81555556,-108.72833329999999
LNI,Lonely AS,"Lonely, AK",70.91083333,-153.2422222
LNK,Lincoln Airport,"Lincoln, NE",40.85083333,-96.75916667
LNL,Kings Land O' Lakes,"Land O' Lakes, WI",46.15416667,-89.21194444
LNP,Lonesome Pine,"Wise, VA",36.9875,-82.53
LNS,Lancaster Airport,"Lancaster, PA",40.12222222,-76.29444444
LNT,Lanett Municipal,"Lanett, AL",32.81194444,-85.22972222
LNY,Lanai Airport,"Lanai, HI",20.78555556,-156.95138889999998
LOI,Laredo Municipal,"Laredo, TX",27.61555556,-99.52
LOL,Derby Field,"Lovelock, NV",40.06638889,-118.565
LOU,Bowman Field,"Louisville, KY",38.22805556,-85.66361111
LOZ,London-Corbin Airport-Magee Field,"London/Corbin, KY",37.08694444,-84.0775
LPC,Lompoc Airport,"Lompoc, CA",34.66555556,-120.4675
LPO,La Porte Municipal,"La Porte, IN",41.5725,-86.73444444
LPS,Lopez Island Airport,"Lopez Island, WA",48.48388889,-122.93777779999999
LPW,Little Port Walter Airport,"Little Port Walter, AK",56.38333333,-134.83333330000002
LQK,Pickens County,"Pickens, SC",34.81,-82.70277778
LRD,Laredo International,"Laredo, TX",27.54416667,-99.46166667
LRF,Little Rock AFB,"Jacksonville, AR",34.9175,-92.145
WLR,Loring Airport,"Loring, AK",55.60166667,-131.635
LRN,Larson AFB,"Moses Lake, WA",47.14305556,-119.24027779999999
LRO,Sharpe AFF,"Lathrop, CA",37.83666667,-121.2722222
LRU,Las Cruces International,"Las Cruces, NM",32.28944444,-106.92194440000002
LSD,Blue Grass Station AHP,"Lexington, KY",38.09111111,-84.31666667
LSE,La Crosse Regional,"La Crosse, WI",43.87916667,-91.25666667
LSF,Lawson AAF,"Columbus, GA",32.33166667,-84.98722222
LSN,Los Banos Municipal,"Los Banos, CA",37.06388889,-120.86972220000001
LSR,Lost River 1,"Lost River, AK",65.39611111,-167.16305559999998
LSV,Nellis AFB,"Las Vegas, NV",36.23611111,-115.03416670000001
LTS,Altus AFB,"Altus, OK",34.66638889,-99.26805556
LUF,Luke AFB,"Phoenix, AZ",33.535,-112.38305559999999
LUK,Cincinnati Municipal Lunken Field,"Cincinnati, OH",39.10333333,-84.41861111
LUL,Hesler-Noble Field,"Laurel, MS",31.67305556,-89.17277778
LUP,Kalaupapa Airport,"Kalaupapa, HI",21.21111111,-156.9736111
LUR,Cape Lisburne LRRS,"Cape Lisburne, AK",68.875,-166.11111110000002
LVD,Lime Village Airport,"Lime Village, AK",61.35916667,-155.44027780000002
LVK,Livermore Municipal,"Livermore, CA",37.69333333,-121.8202778
LVM,Livingston Airport,"Livingston, MT",45.66666667,-110.56666670000001
LVS,Las Vegas Municipal,"Las Vegas, NM",35.65416667,-105.1425
LWB,Greenbrier Valley,"Lewisburg, WV",37.85833333,-80.39944444
LWC,Lawrence Municipal,"Lawrence, KS",39.01111111,-95.21638889
LWF,Lawrenceburg-Lawrence County,"Lawrenceburg, TN",35.23444444,-87.25805556
LWL,Wells Municipal/Harriet Field,"Wells, NV",41.11722222,-114.92222220000001
LWM,Lawrence Municipal,"Lawrence, MA",42.71722222,-71.12361111
LWS,Lewiston Nez Perce County,"Lewiston, ID",46.37444444,-117.01527779999999
LWT,Lewistown Municipal,"Lewistown, MT",47.04916667,-109.46666670000002
LWV,Lawrenceville-Vincennes International,"Lawrenceville, IL",38.76416667,-87.60555556
LXN,Jim Kelly Field,"Lexington, NE",40.79055556,-99.77583333
LXV,Lake County,"Leadville, CO",39.21944444,-106.31638889999999
LYH,Lynchburg Regional/Preston Glenn Field,"Lynchburg, VA",37.32666667,-79.20111111
LYU,Ely Municipal,"Ely, MN",47.82388889,-91.82944444
LZU,Gwinnett County - Briscoe Field,"Lawrenceville, GA",33.97805556,-83.9625
MA1,Katama Airpark,"Edgartown, MA",41.35833333,-70.52444444
MAC,Macon Downtown,"Macon, GA",32.82166667,-83.56194444
MAE,Madera Municipal,"Madera, CA",36.98638889,-120.1125
MAF,Midland International Air and Space Port,"Midland/Odessa, TX",31.9425,-102.2019444
MAW,Malden Regional,"Malden, MO",36.59833333,-89.9925
MAZ,Eugenio Maria de Hostos,"Mayaguez, PR",18.25555556,-67.14833333
MBL,Manistee County-Blacker,"Manistee/Ludington, MI",44.2725,-86.24694444
MBS,MBS International,"Saginaw/Bay City/Midland, MI",43.53305556,-84.07972222
MBY,Omar N Bradley,"Moberley, MO",39.46333333,-92.42638889
MCB,McComb/Pike County/John E. Lewis Field,"McComb, MS",31.17833333,-90.47194444
MCC,McClellan Airfield,"Sacramento, CA",38.66777778,-121.40055559999999
MCD,Mackinac Island Airport,"Mackinac Island, MI",45.865,-84.63722222
MCE,Merced Regional/Macready Field,"Merced, CA",37.28472222,-120.5138889
MCF,Macdill AFB,"Tampa, FL",27.84944444,-82.52111111
MCG,McGrath Airport,"McGrath, AK",62.95277778,-155.6069444
MCI,Kansas City International,"Kansas City, MO",39.2975,-94.71388889
MCK,McCook Ben Nelson Regional,"McCook, NE",40.20638889,-100.5919444
MCL,Denali,"McKinley Park, AK",63.645,-148.7980556
MCN,Middle Georgia Regional,"Macon, GA",32.69277778,-83.64916667
MCO,Orlando International,"Orlando, FL",28.42944444,-81.30888889
MCW,Mason City Municipal,"Mason City, IA",43.15777778,-93.33111111
MDA,Martindale AHP,"San Antonio, TX",29.43138889,-98.37777778
MDD,Midland Airpark,"Midland/Odessa, TX",32.03666667,-102.1016667
MDF,Taylor County,"Medford, WI",45.10138889,-90.30027778
MDH,Southern Illinois,"Carbondale, IL",37.77805556,-89.25194444
MDJ,Madras Municipal,"Madras, OR",44.67027778,-121.1552778
MDO,Middleton Island Airport,"Middleton Island, AK",59.45,-146.30722219999998
MDR,Medfra Airport,"Medfra, AK",63.10694444,-154.7166667
MDT,Harrisburg International,"Harrisburg, PA",40.19305556,-76.7625
MDW,Chicago Midway International,"Chicago, IL",41.78583333,-87.7525
MDY,Sand Island Field,"Midway Island, TT",28.20444444,-177.3786111
ME1,Steven A. Bean Municipal,"Rangeley, ME",44.99194444,-70.66472222
MEI,Key Field,"Meridian, MS",32.3325,-88.75194444
MEJ,Port Meadville,"Meadville, PA",41.62666667,-80.21472222
MEM,Memphis International,"Memphis, TN",35.0425,-89.97666667
MEO,Dare County Regional,"Manteo, NC",35.91888889,-75.69555556
MER,Castle,"Atwater, CA",37.38055556,-120.56805559999998
MEV,Minden-Tahoe,"Minden, NV",39.00055556,-119.7511111
MFD,Mansfield Lahm Regional,"Mansfield, OH",40.82138889,-82.51666667
MFE,McAllen Miller International,"Mission/McAllen/Edinburg, TX",26.17583333,-98.23861111
MFH,Mesquite Airport,"Mesquite, NV",36.83305556,-114.05583329999999
MFI,Marshfield Municipal,"Marshfield, WI",44.63694444,-90.18944444
MFR,Rogue Valley International - Medford,"Medford, OR",42.37416667,-122.8736111
MFT,Mangham Field,"Fort Worth, TX",32.85611111,-97.2
MFV,Accomack County,"Melfa, VA",37.64694444,-75.76111111
MGC,Michigan City Municipal Phillips Field,"Michigan City, IN",41.70333333,-86.82111111
MGE,Dobbins ARB,"Marietta, GA",33.91444444,-84.51416667
MGJ,Orange County,"Montgomery, NY",41.51,-74.26472222
MGM,Montgomery Regional,"Montgomery, AL",32.30055556,-86.39388889
MGR,Moultrie/Thomasville Airport,"Moultrie/Thomasville, GA",31.06944444,-83.80277778
MGW,Morgantown Municipal-Walter L. Bill Hart Field,"Morgantown, WV",39.64361111,-79.9175
MGY,Dayton-Wright Brothers,"Dayton, OH",39.58888889,-84.22472222
MHE,Mitchell Municipal,"Mitchell, SD",43.77472222,-98.03861111
MHK,Manhattan Regional,"Manhattan/Ft. Riley, KS",39.14111111,-96.67166667
MHL,Marshall Memorial Municipal,"Marshall, MO",39.09555556,-93.20277778
MHM,Minchumina Airport,"Minchumina, AK",63.88583333,-152.30194440000002
MHR,Sacramento Mather,"Sacramento, CA",38.55527778,-121.29722220000001
MHT,Manchester-Boston Regional,"Manchester, NH",42.93277778,-71.43583333
MHV,Mojave Air and Space Port,"Mojave, CA",35.05888889,-118.15055559999999
MI1,Greenville Municipal,"Greenville, MI",43.14222222,-85.25388889
MI2,West Michigan Regional,"Holland, MI",42.74277778,-86.10777778
MI3,Livingston County Spencer J. Hardy,"Howell, MI",42.62944444,-83.98222222
MIA,Miami International,"Miami, FL",25.79527778,-80.29
MIB,Minot AFB,"Minot, ND",48.41583333,-101.3580556
MIC,Crystal,"Minneapolis, MN",45.06194444,-93.35388889
MIE,Delaware County Regional,"Muncie/Anderson/Newcastle, IN",40.2425,-85.39583333
MIO,Miami Regional,"Miami, OK",36.90916667,-94.8875
MIQ,Millard,"Omaha, NE",41.19611111,-96.11222222
MIT,Shafter - Minter Field,"Shafter, CA",35.5075,-119.1922222
MIV,Millville Municipal,"Millville, NJ",39.36777778,-75.07222222
MIW,Marshalltown Municipal,"Marshalltown, IA",42.11277778,-92.91777778
MJQ,Jackson Airport,"Jackson, MN",43.63333333,-94.98333333
MJX,Ocean County,"Toms River, NJ",39.92611111,-74.29555556
MKC,Charles B. Wheeler Downtown,"Kansas City, MO",39.12305556,-94.59277778
MKE,General Mitchell International,"Milwaukee, WI",42.94694444,-87.89694444
MKG,Muskegon County,"Muskegon, MI",43.16888889,-86.2375
MKK,Molokai,"Hoolehua, HI",21.15277778,-157.0963889
MKL,McKellar-Sipes Regional,"Jackson, TN",35.6,-88.91555556
MKO,Muskogee Davis Regional,"Muskogee, OK",35.65777778,-95.36166667
MKT,Mankato Regional,"Mankato, MN",44.22277778,-93.91944444
MLB,Melbourne International,"Melbourne, FL",28.10277778,-80.64527778
MLC,McAlester Regional,"McAlester, OK",34.8825,-95.78333333
MLD,Malad City Airport,"Malad City, ID",42.17055556,-112.28944440000001
MLF,Milford Municipal/Ben and Judy Briscoe Field,"Milford, UT",38.42666667,-113.01333329999999
MLI,Quad City International,"Moline, IL",41.44833333,-90.5075
MLK,Malta Airport,"Malta, MT",48.36694444,-107.91944440000002
MLL,Marshall Don Hunter Sr.,"Marshall, AK",61.86416667,-162.0261111
MLS,Frank Wiley Field,"Miles City, MT",46.42805556,-105.88611110000001
MLT,Millinocket Municipal,"Millinocket, ME",45.64777778,-68.68555556
MLU,Monroe Regional,"Monroe, LA",32.51083333,-92.03777778
MLY,Manley Hot Springs Airport,"Manley Hot Springs, AK",64.98805556,-150.6475
MMH,Mammoth Lakes Airport,"Mammoth Lakes, CA",37.63111111,-118.8513889
MMI,McMinn County,"Athens, TN",35.39916667,-84.56166667
MML,Southwest Minnesota Regional-Marshall/Ryan Field,"Marshall, MN",44.45166667,-95.82444444
MMN,Minute Man Air Field,"Stow, MA",42.46055556,-71.51777778
MMT,McEntire Jngb,"Columbia, SC",33.92083333,-80.80111111
MMU,Morristown Municipal,"Morristown, NJ",40.79944444,-74.415
MN1,Fosston Municipal,"Fosston, MN",47.59277778,-95.77361111
MN2,Moose Lake Carlton County,"Moose Lake, MN",46.41861111,-92.80472222
MN3,Ortonville Municipal-Martinson Field,"Ortonville, MN",45.30416667,-96.42472222
MNM,Menominee-Marinette Twin County,"Marinette, MI",45.12666667,-87.63861111
MNN,Marion Municipal,"Marion, OH",40.61638889,-83.06333333
MNT,Minto Al Wright,"Minto, AK",65.14805556,-149.3686111
MNZ,Manassas Regional/Harry P. Davis Field,"Manassas, VA",38.72111111,-77.515
MO1,Midwest National Air Center,"Mosby, MO",39.3325,-94.30972222
MO2,Washington Regional,"Washington, MO",38.5875,-90.99388889
MOB,Mobile Regional,"Mobile, AL",30.69138889,-88.24277778
MOD,Modesto City-County-Harry Sham Field,"Modesto, CA",37.62583333,-120.95444440000001
MOP,Mount Pleasant Municipal,"Mount Pleasant, MI",43.62166667,-84.73722222
MOR,Moore-Murrell,"Morristown, TN",36.17944444,-83.37555556
MOS,Moses Point Airport,"Moses Point, AK",64.69805556,-162.05722219999998
MOT,Minot International,"Minot, ND",48.25777778,-101.2780556
MOU,Mountain Village Airport,"Mountain Village, AK",62.09472222,-163.68277780000003
MPB,Watson Island International,"Miami, FL",25.77833333,-80.17027778
ID2,Montpelier Airport,"Montpelier, ID",42.33611111,-111.2888889
MPJ,Petit Jean Park,"Morrilton, AR",35.13888889,-92.90916667
MPO,Pocono Mountains Municipal,"Mt. Pocono, PA",41.13777778,-75.38
MPR,McPherson Airport,"McPherson, KS",38.3525,-97.69138889
MPS,Mount Pleasant Municipal,"Mount Pleasant, TX",33.12861111,-94.97583333
MPV,Edward F Knapp State,"Montpelier/Barre, VT",44.20361111,-72.56222222
MQB,Macomb Municipal,"Macomb, IL",40.52,-90.6525
MQJ,Indianapolis Regional,"Indianapolis, IN",39.84305556,-85.89777778
MQT,Sawyer International,"Marquette, MI",46.35361111,-87.39527778
MQY,Smyrna Airport,"Smyrna, TN",36.00888889,-86.52
MRB,Eastern WV Regional/Shepherd Field,"Martinsburg, WV",39.40222222,-77.98305556
MRC,Maury County,"Columbia, TN",35.55444444,-87.17916667
MRH,Beaufort Morehead City,"Morehead City, NC",34.73416667,-76.66027778
MRI,Merrill Field,"Anchorage, AK",61.21361111,-149.84472219999998
MRK,Marco Island Airport,"Marco Island, FL",25.995,-81.6725
MRN,Morganton Lenoir,"Morganton, NC",35.83333333,-81.61666667
MRY,Monterey Regional,"Monterey, CA",36.58694444,-121.84305559999999
MS1,Grenada Municipal,"Grenada, MS",33.8325,-89.79805556
MSC,Falcon Field,"Mesa, AZ",33.46083333,-111.72833329999999
MSL,Northwest Alabama Regional,"Muscle Shoals, AL",34.74527778,-87.61027778
MSN,Dane County Regional-Truax Field,"Madison, WI",43.14,-89.3375
MSO,Missoula International,"Missoula, MT",46.91638889,-114.09055559999999
MSP,Minneapolis-St Paul International,"Minneapolis, MN",44.88194444,-93.22166667
MSS,Massena International-Richards Field,"Massena, NY",44.93638889,-74.845
MSV,Sullivan County International,"Monticello, NY",41.70166667,-74.795
MSY,Louis Armstrong New Orleans International,"New Orleans, LA",29.99333333,-90.25916667
MT1,Colstrip Airport,"Colstrip, MT",45.85277778,-106.70916670000001
MTC,Selfridge Angb,"Mt. Clemens, MI",42.61388889,-82.83694444
MTH,The Florida Keys Marathon International,"Marathon, FL",24.72611111,-81.05138889
MTJ,Montrose Regional,"Montrose/Delta, CO",38.50972222,-107.89416670000001
MTM,Metlakatala,"Metlakatla, AK",55.13333333,-131.5833333
MTN,Martin State,"Baltimore, MD",39.32555556,-76.41388889
MTO,Coles County Memorial,"Mattoon/Charleston, IL",39.47777778,-88.28
MTP,Sky Portal,"Montauk Point, NY",41.07666667,-71.92055556
MTW,Manitowoc County,"Manitowoc, WI",44.12888889,-87.68055556
MTX,Metro Field,"Fairbanks, AK",64.80666667,-147.7625
MUE,Waimea-Kohala,"Kamuela, HI",20.00138889,-155.66805559999997
MUL,Spence,"Moultrie, GA",31.13777778,-83.70416667
MUO,Mountain Home AFB,"Mountain Home, ID",43.04361111,-115.8725
MUT,Muscatine Municipal,"Muscatine, IA",41.36777778,-91.14833333
MVL,Morrisville Stowe State,"Morrisville, VT",44.53444444,-72.61388889
MVM,Kayenta Airport,"Kayenta, AZ",36.71638889,-110.22833329999999
MVN,Mount Vernon Airport,"Mount Vernon, IL",38.32333333,-88.85861111
